name,gradeLevel,formattedAddress,latitude,longitude,neighbourhood,zipcode
Fiona Johnson,3,"720 Richards Avenue, Portsmouth, New Hampshire 03801, United States",43.067064,-70.757217,Richards Avenue Area,03801
Lily Harris,1,"447 South Street, Portsmouth, New Hampshire 03801, United States",43.0681,-70.755626,Little Harbor,03801
Quincy Harris,1,"Freedom Circle, Portsmouth, New Hampshire 03801, United States",43.03016,-70.79462,Maplehaven,03801
Nancy Adams,1,"Adams Avenue, Portsmouth, New Hampshire 03801, United States",43.037709,-70.7667475,Elwyn Park,03801
Tina Allen,4,"456 High Street, Portsmouth, New Hampshire 03801, United States",43.078987,-70.759837,Downtown,03801
George Clark,4,"883 Marcy Court, Portsmouth, NH 03801",43.0708,-70.749628,South End,03801
Isaac Scott,5,"489 Greenleaf Avenue, Portsmouth, New Hampshire 03801, United States",43.053412,-70.778673,Portsmouth Plains,03801
Michael Smith,1,"Coakley Road, Portsmouth, New Hampshire 03801, United States",43.069067,-70.783198,Coakley Road,03801
Ethan Allen,0,"203 Greenleaf Avenue, Portsmouth, New Hampshire 03801, United States",43.055896,-70.773791,Portsmouth Plains,03801
Bob Brown,4,"571 Lincoln Avenue, Portsmouth, New Hampshire 03801, United States",43.067017,-70.764913,Wibird Area,03801
Isaac White,3,"678 Richards Avenue, Portsmouth, New Hampshire 03801, United States",43.06711,-70.757247,Richards Avenue Area,03801
Quincy Wilson,1,"Market Street, Portsmouth, New Hampshire 03801, United States",43.0822131818182,-70.7626760909091,Nobles Island,03801
Fiona Harris,1,"Pamela Drive, Portsmouth, New Hampshire 03801, United States",43.026801,-70.7985215,Maplehaven,03801
Isaac Miller,4,"Freedom Circle, Portsmouth, New Hampshire 03801, United States",43.03016,-70.79462,Maplehaven,03801
Julia Baker,0,"Mechanic Street, Portsmouth, New Hampshire 03801, United States",43.07441,-70.750145,South End,03801
Julia Davis,2,"199 Cabot Street, Portsmouth, New Hampshire 03801, United States",43.072467,-70.765725,Goodwin Park,03801
Tina Smith,2,"Gardner Street, Portsmouth, New Hampshire 03801, United States",43.074546,-70.7508,South End,03801
Kevin Hill,5,"Fleet Street, Portsmouth, New Hampshire 03801, United States",43.0761325714286,-70.7589378571429,Downtown,03801
Lily Wilson,0,"430 Islington Street, Portsmouth, New Hampshire 03801, United States",43.072045,-70.76769,Goodwin Park,03801
Alice Scott,0,"Fleet Street, Portsmouth, New Hampshire 03801, United States",43.0761325714286,-70.7589378571429,Downtown,03801
Alice Brown,4,"128 Brewster Street, Portsmouth, New Hampshire 03801, United States",43.075524,-70.765271,Islington Creek,03801
Kevin Lee,0,"Pamela Drive, Portsmouth, New Hampshire 03801, United States",43.026801,-70.7985215,Maplehaven,03801
Alice Brown,1,"654 Leslie Drive, Portsmouth, New Hampshire 03801, United States",43.0824,-70.771102,Cutts Cove,03801
Lily Davis,4,"Parker Street, Portsmouth, New Hampshire 03801, United States",43.0755905,-70.76288,Islington Creek,03801
Julia Allen,4,"South Mill Street, Portsmouth, New Hampshire 03801, United States",43.07322,-70.75026,South End,03801
Fiona Adams,4,"Farm Lane, Portsmouth, New Hampshire 03801, United States",43.078808,-70.785036,Frank Jones Farm,03801
Daisy Lee,2,"710 Leslie Drive, Portsmouth, New Hampshire 03801, United States",43.082402,-70.77119,Cutts Cove,03801
Oliver Hill,3,"Pamela Drive, Portsmouth, New Hampshire 03801, United States",43.026801,-70.7985215,Maplehaven,03801
Paula Baker,3,"61 Adams Avenue, Portsmouth, New Hampshire 03801, United States",43.037929,-70.767227,Elwyn Park,03801
Michael Reed,5,"66 Maple Haven, Portsmouth, NH 03801",43.081349,-70.784692,Frank Jones Farm,03801
Rachel Miller,4,"576 Maplewood Avenue, Portsmouth, New Hampshire 03801, United States",43.080928,-70.772497,Cutts Cove,03801
Daisy Reed,5,"393 Lincoln Avenue, Portsmouth, New Hampshire 03801, United States",43.067826,-70.761079,Lincoln,03801
Daisy Reed,4,"648 Richards Lane, Portsmouth, NH 03801",43.067142,-70.757269,Richards Avenue Area,03801
Julia Garcia,5,"Gates Street, Portsmouth, New Hampshire 03801, United States",43.07483,-70.751949,South End,03801
Ethan Green,3,"853 Richards Avenue, Portsmouth, New Hampshire 03801, United States",43.066919,-70.757122,Richards Avenue Area,03801
George Kim,3,"Brewster Street, Portsmouth, New Hampshire 03801, United States",43.07469,-70.7647515,Islington Creek,03801
Charlie Garcia,1,"Willard Avenue, Portsmouth, New Hampshire 03801, United States",43.0642175,-70.7653895,Wibird Area,03801
Fiona Clark,5,"Echo Avenue, Portsmouth, New Hampshire 03801, United States",43.0837015,-70.7889985,Frank Jones Farm,03801
George Smith,4,"259 Mechanic Street, Portsmouth, New Hampshire 03801, United States",43.07421,-70.749716,South End,03801
Quincy Smith,4,"Pinehurst Road, Portsmouth, New Hampshire 03801, United States",43.06348,-70.7591115,Broad Street,03801
Sam Allen,5,"110 Austin Street, Portsmouth, New Hampshire 03801, United States",43.072268,-70.76328,Goodwin Park,03801
Charlie Miller,3,"219 Peverly Hill Road, Portsmouth, New Hampshire 03801, United States",43.055972,-70.780996,Portsmouth Plains,03801
Oliver Green,1,"162 Wibird Street, Portsmouth, New Hampshire 03801, United States",43.067162,-70.764011,Wibird Area,03801
Sam Allen,5,"263 Madison Street, Portsmouth, New Hampshire 03801, United States",43.071325,-70.767293,Goodwin Park,03801
Lily Davis,4,"966 Court Street, Portsmouth, New Hampshire 03801, United States",43.077191,-70.752942,Downtown,03801
Kevin Smith,0,"Mechanic Street, Portsmouth, New Hampshire 03801, United States",43.07441,-70.750145,South End,03801
Daisy Baker,2,"623 Sheffield Road, Manchester, New Hampshire 03103, United States",42.944256,-71.415806,Crystal Lake,03103
Paula Smith,0,"Gardner Street, Portsmouth, New Hampshire 03801, United States",43.074546,-70.7508,South End,03801
Alice Adams,4,"95 Gardner Street, Portsmouth, New Hampshire 03801, United States",43.074655,-70.750111,South End,03801
Quincy Baker,1,"Brewster Street, Portsmouth, New Hampshire 03801, United States",43.07469,-70.7647515,Islington Creek,03801
Alice Miller,3,"38 Rockland Street, Portsmouth, New Hampshire 03801, United States",43.070518,-70.757982,Richards Avenue Area,03801
Nancy Clark,5,"184 Langdon Street, Portsmouth, New Hampshire 03801, United States",43.075395,-70.765654,Islington Creek,03801
Isaac Hill,2,"385 Lincoln Avenue, Portsmouth, New Hampshire 03801, United States",43.067866,-70.760917,Lincoln,03801
Alice Scott,0,"679 Maplewood Avenue, Portsmouth, New Hampshire 03801, United States",43.081069,-70.774295,Cutts Cove,03801
Lily Lee,5,"Gardner Street, Portsmouth, New Hampshire 03801, United States",43.074546,-70.7508,South End,03801
Bob Adams,2,"93 Rockland Street, Portsmouth, New Hampshire 03801, United States",43.070379,-70.75849,Richards Avenue Area,03801
Nancy Clark,1,"Denise Street, Portsmouth, New Hampshire 03801, United States",43.0266005,-70.7987575,Maplehaven,03801
Michael Baker,5,"2 Court Street, Portsmouth, NH 03801",43.075926,-70.75945,Downtown,03801
Hannah Green,5,"Pinehurst Road, Portsmouth, New Hampshire 03801, United States",43.06348,-70.7591115,Broad Street,03801
Daisy Clark,1,"621 Wibird Street, Portsmouth, New Hampshire 03801, United States",43.064186,-70.762617,Wibird Area,03801
Oliver Harris,1,"799 Wedgewood Road, Portsmouth, NH 03801",43.019091,-71.455495,North End,03104
Lily Allen,4,"Mechanic Street, Portsmouth, New Hampshire 03801, United States",43.07441,-70.750145,South End,03801
Rachel Johnson,0,"Farm Lane, Portsmouth, New Hampshire 03801, United States",43.078808,-70.785036,Frank Jones Farm,03801
Sam Turner,2,"Denise Street, Portsmouth, New Hampshire 03801, United States",43.0266005,-70.7987575,Maplehaven,03801
Kevin Brown,4,"Cass Street, Portsmouth, New Hampshire 03801, United States",43.07001,-70.76752,Cass Street,03801
Nancy Turner,4,"744 McKinley Road, Portsmouth, NH 03801",43.040078,-70.768478,Elwyn Park,03801
Lily Allen,5,"Willard Avenue, Portsmouth, New Hampshire 03801, United States",43.0642175,-70.7653895,Wibird Area,03801
Tina Davis,5,"Salter Street, Portsmouth, New Hampshire 03801, United States",43.0725,-70.74937,South End,03801
Rachel Clark,0,"Brewster Street, Portsmouth, New Hampshire 03801, United States",43.07469,-70.7647515,Islington Creek,03801
Daisy Baker,3,"95 Langdon Street, Portsmouth, New Hampshire 03801, United States",43.075257,-70.765827,Islington Creek,03801
Alice Baker,1,"709 Broad Street, Portsmouth, New Hampshire 03801, United States",43.061959,-70.756491,Broad Street,03801
Charlie Allen,3,"906 South Street, Portsmouth, New Hampshire 03801, United States",43.066499,-70.757344,Richards Avenue Area,03801
Sam Miller,2,"Brewster Street, Portsmouth, New Hampshire 03801, United States",43.07469,-70.7647515,Islington Creek,03801
Michael Green,5,"291 Wibird Street, Portsmouth, New Hampshire 03801, United States",43.065342,-70.76321,Wibird Area,03801
Hannah Baker,4,"Mechanic Street, Portsmouth, New Hampshire 03801, United States",43.07441,-70.750145,South End,03801
Fiona Kim,2,"952 Austin Court, Portsmouth, NH 03801",43.07178,-70.76416,Goodwin Park,03801
Fiona Lee,0,"491 Islington Street, Portsmouth, New Hampshire 03801, United States",43.072077,-70.768875,Islington Creek,03801
Kevin Harris,0,"856 South Street, Portsmouth, New Hampshire 03801, United States",43.066543,-70.757288,Richards Avenue Area,03801
Hannah Clark,3,"Salter Street, Portsmouth, New Hampshire 03801, United States",43.0725,-70.74937,South End,03801
Sam Miller,2,"596 Peverly Hill Road, Portsmouth, New Hampshire 03801, United States",43.053133,-70.779038,Portsmouth Plains,03801
Kevin Brown,5,"Mechanic Street, Portsmouth, New Hampshire 03801, United States",43.07441,-70.750145,South End,03801
Charlie Clark,0,"Pinehurst Road, Portsmouth, New Hampshire 03801, United States",43.06348,-70.7591115,Broad Street,03801
Sam Harris,1,"63 Rockland Street, Portsmouth, New Hampshire 03801, United States",43.070518,-70.757982,Richards Avenue Area,03801
Isaac Hill,0,"200 Marcy Street, Portsmouth, New Hampshire 03801, United States",43.075082,-70.751888,South End,03801
Quincy Adams,5,"Kane Street, Portsmouth, New Hampshire 03801, United States",43.0784705,-70.7714085,Christian Shore,03801
Hannah Brown,3,"690 Market Street, Portsmouth, NH 03801",43.0819105,-70.7675995,Cutts Cove,03801
Alice Miller,0,"593 Summit Avenue, Portsmouth, NH 03801",43.074839,-70.764804,Islington Creek,03811
Nancy Harris,4,"246 Parker Street, Manchester, New Hampshire 03102, United States",42.982193,-71.478193,Piscataquog,03102
Sam Kim,1,"Langdon Street, Portsmouth, New Hampshire 03801, United States",43.074516,-70.7653624344262,Islington Creek,03801
Ethan Turner,4,"239 Sagamore Avenue, Portsmouth, New Hampshire 03801, United States",43.063122,-70.756221,Broad Street,03801
Oliver Lee,0,"358 Peverly Hill Road, Portsmouth, New Hampshire 03801, United States",43.053573,-70.7793,Portsmouth Plains,03801
Quincy Turner,0,"504 Coolidge Drive, Portsmouth, New Hampshire 03801, United States",43.037996,-70.775382,Elwyn Park,03801
Tina Green,4,"102 Willard Avenue, Portsmouth, New Hampshire 03801, United States",43.064182,-70.764834,Wibird Area,03801
Alice Garcia,0,"Brewster Street, Portsmouth, New Hampshire 03801, United States",43.07469,-70.7647515,Islington Creek,03801
Lily Garcia,1,"152 High Street, Portsmouth, New Hampshire 03801, United States",43.078942,-70.759788,Downtown,03801
Bob Davis,4,"282 Cabot Street, Portsmouth, New Hampshire 03801, United States",43.073173,-70.766576,Islington Creek,03801
Sam Hill,0,"Mariette Drive, Portsmouth, New Hampshire 03801, United States",43.0260915,-70.799387,Maplehaven,03801
Lily Johnson,4,"Willard Avenue, Portsmouth, New Hampshire 03801, United States",43.0642175,-70.7653895,Wibird Area,03801
Isaac Harris,5,"157 Kane Street, Portsmouth, New Hampshire 03801, United States",43.078634,-70.771382,Christian Shore,03801
Kevin Adams,3,"66 Parker Street, Portsmouth, New Hampshire 03801, United States",43.07556,-70.762646,Islington Creek,03801
Sam Allen,4,"Pamela Drive, Portsmouth, New Hampshire 03801, United States",43.026801,-70.7985215,Maplehaven,03801
Nancy Green,0,"268 Wedgewood Road, Portsmouth, NH 03801",43.020004,-71.456786,North End,03104
Hannah Smith,0,"282 Rockland Street, Portsmouth, New Hampshire 03801, United States",43.069201,-70.760998,Lincoln,03801
Michael White,1,"Freedom Circle, Portsmouth, New Hampshire 03801, United States",43.03016,-70.79462,Maplehaven,03801
Oliver Clark,0,"875 Richards Lane, Portsmouth, NH 03801",43.066895,-70.757107,Richards Avenue Area,03801
Hannah Wilson,4,"Echo Avenue, Portsmouth, New Hampshire 03801, United States",43.0837015,-70.7889985,Frank Jones Farm,03801
Fiona Kim,1,"245 Spinney Road, Portsmouth, New Hampshire 03801, United States",43.063342,-70.77435,Lafayette Park,03801
Charlie White,4,"Brackett Lane, Portsmouth, New Hampshire 03801, United States",43.068337,-70.754319,Little Harbor,03801
Ethan Green,2,"962 Marcy Court, Portsmouth, NH 03801",43.070768,-70.749607,South End,03801
Tina Adams,5,"Adams Avenue, Portsmouth, New Hampshire 03801, United States",43.037709,-70.7667475,Elwyn Park,03801
Ethan Kim,1,"Larry Lane, Portsmouth, New Hampshire 03801, United States",43.068882,-70.78367,Coakley Road,03801
Isaac Clark,0,"248 Spinney Road, Portsmouth, New Hampshire 03801, United States",43.063762,-70.77336,Lafayette Park,03801
Rachel Adams,4,"624 Wedgewood Road, Portsmouth, NH 03801",43.01921,-71.45552,North End,03104
Bob Lee,0,"35 New Castle Avenue, Portsmouth, New Hampshire 03801, United States",43.070204,-70.752105,South End,03801
Isaac Reed,3,"Whipple Street, Portsmouth, New Hampshire 03801, United States",43.0752045,-70.7757859,Christian Shore,03801
Quincy Smith,1,"453 Spinney Road, Portsmouth, New Hampshire 03801, United States",43.063026,-70.773259,Lafayette Park,03801
Kevin Miller,4,"16 Brackett Lane, Portsmouth, NH 03801",43.06728,-70.753687,Little Harbor,03801
Sam Turner,2,"183 Woodbury Avenue, Portsmouth, New Hampshire 03801, United States",43.072945,-70.776464,Christian Shore,03801
Fiona Miller,0,"Deer Street, Portsmouth, New Hampshire 03801, United States",43.078175,-70.760861,North End,03801
Fiona Miller,3,"609 Pleasant Street, Portsmouth, New Hampshire 03801, United States",43.073144,-70.750938,South End,03801
Isaac Clark,3,"Freedom Circle, Portsmouth, New Hampshire 03801, United States",43.03016,-70.79462,Maplehaven,03801
Quincy Green,5,"Pinehurst Road, Portsmouth, New Hampshire 03801, United States",43.06348,-70.7591115,Broad Street,03801
Hannah Miller,3,"Rockland Street, Portsmouth, New Hampshire 03801, United States",43.069858,-70.759441,Richards Avenue Area,03801
Bob Green,4,"351 Marcy Court, Portsmouth, NH 03801",43.073066,-70.750793,South End,03801
Oliver Davis,4,"Pamela Drive, Portsmouth, New Hampshire 03801, United States",43.026801,-70.7985215,Maplehaven,03801
Julia Davis,4,"365 Islington Street, Portsmouth, New Hampshire 03801, United States",43.073016,-70.766629,Islington Creek,03801
Sam Clark,0,"197 Cass Street, Portsmouth, New Hampshire 03801, United States",43.069594,-70.76713,Cass Street,03801
Nancy Garcia,5,"Coakley Road, Portsmouth, New Hampshire 03801, United States",43.069067,-70.783198,Coakley Road,03801
Ethan Baker,0,"Brewster Street, Portsmouth, New Hampshire 03801, United States",43.07469,-70.7647515,Islington Creek,03801
Sam Reed,4,"South Mill Street, Portsmouth, New Hampshire 03801, United States",43.07322,-70.75026,South End,03801
Bob Johnson,3,"683 McKinley Road, Portsmouth, NH 03801",43.040078,-70.768478,Elwyn Park,03801
Quincy Harris,0,"Willard Avenue, Portsmouth, New Hampshire 03801, United States",43.0642175,-70.7653895,Wibird Area,03801
Michael Adams,0,"Echo Avenue, Portsmouth, New Hampshire 03801, United States",43.0837015,-70.7889985,Frank Jones Farm,03801
Paula Turner,2,"482 Austin Court, Portsmouth, NH 03801",43.070501,-70.766219,Goodwin Park,03801
Alice Green,3,"Kane Street, Portsmouth, New Hampshire 03801, United States",43.0784705,-70.7714085,Christian Shore,03801
Fiona Baker,5,"186 Mariette Drive, Portsmouth, New Hampshire 03801, United States",43.027394,-70.799024,Maplehaven,03801
Alice Lee,3,"978 Lincoln Avenue, Portsmouth, New Hampshire 03801, United States",43.06666,-70.767059,Wibird Area,03801
Paula Kim,5,"958 Richards Lane, Portsmouth, NH 03801",43.066805,-70.757048,Richards Avenue Area,03801
Fiona Green,5,"Pinehurst Road, Portsmouth, New Hampshire 03801, United States",43.06348,-70.7591115,Broad Street,03801
George Miller,2,"207 Coolidge Drive, Portsmouth, New Hampshire 03801, United States",43.040206,-70.773264,Elwyn Park,03801
Julia Harris,0,"722 Lincoln Avenue, Portsmouth, New Hampshire 03801, United States",43.066707,-70.766656,Wibird Area,03801
Kevin White,5,"Cass Street, Portsmouth, New Hampshire 03801, United States",43.07001,-70.76752,Cass Street,03801
George Lee,0,"671 Spinney Road, Portsmouth, New Hampshire 03801, United States",43.062961,-70.773209,Lafayette Park,03801
Alice Turner,2,"Willard Avenue, Portsmouth, New Hampshire 03801, United States",43.0642175,-70.7653895,Wibird Area,03801
Bob Lee,1,"215 Gates Street, Portsmouth, New Hampshire 03801, United States",43.075023,-70.750529,South End,03801
Fiona Turner,4,"835 Summit Avenue, Portsmouth, NH 03801",43.074839,-70.764804,Islington Creek,03811
Nancy Green,0,"412 Spinney Road, Portsmouth, New Hampshire 03801, United States",43.06283,-70.773109,Lafayette Park,03801
Tina Baker,0,"Adams Avenue, Portsmouth, New Hampshire 03801, United States",43.037709,-70.7667475,Elwyn Park,03801
Julia Clark,1,"Daniel Street, Portsmouth, New Hampshire 03801, United States",43.0775006666667,-70.7554263333333,Downtown,03801
Fiona Reed,5,"199 Wibird Street, Portsmouth, New Hampshire 03801, United States",43.066611,-70.763359,Wibird Area,03801
Michael White,2,"Parker Street, Portsmouth, New Hampshire 03801, United States",43.0755905,-70.76288,Islington Creek,03801
Bob Davis,3,"98 Brewster Street, Portsmouth, New Hampshire 03801, United States",43.0754,-70.765337,Islington Creek,03801
Paula Harris,1,"802 Middle Street, Portsmouth, NH 03801",43.058101,-70.778918,Portsmouth Plains,03801
Kevin Adams,4,"Parker Street, Portsmouth, New Hampshire 03801, United States",43.0755905,-70.76288,Islington Creek,03801
Hannah Brown,1,"634 Austin Court, Portsmouth, NH 03801",43.07178,-70.76416,Goodwin Park,03801
Nancy Reed,0,"Gardner Street, Portsmouth, New Hampshire 03801, United States",43.074546,-70.7508,South End,03801
Rachel Harris,4,"349 Greenleaf Avenue, Portsmouth, New Hampshire 03801, United States",43.054259,-70.777097,Portsmouth Plains,03801
Nancy Adams,5,"Gardner Street, Portsmouth, New Hampshire 03801, United States",43.074546,-70.7508,South End,03801
Nancy Kim,3,"461 Lincoln Avenue, Portsmouth, New Hampshire 03801, United States",43.067466,-70.762727,Wibird Area,03801
Charlie Green,1,"44 Farm Lane, Portsmouth, New Hampshire 03801, United States",43.079044,-70.78346,Frank Jones Farm,03801
Paula Garcia,5,"353 Leslie Drive, Portsmouth, New Hampshire 03801, United States",43.082216,-70.769173,Cutts Cove,03801
George Wilson,5,"Austin Street, Portsmouth, New Hampshire 03801, United States",43.07178,-70.76416,Goodwin Park,03801
Kevin Baker,5,"226 South Street, Portsmouth, New Hampshire 03801, United States",43.06992,-70.752308,Little Harbor,03801
Lily Lee,2,"748 Pleasant Street, Portsmouth, New Hampshire 03801, United States",43.073116,-70.750887,South End,03801
Alice Davis,5,"459 South Street, Portsmouth, New Hampshire 03801, United States",43.068261,-70.755522,Richards Avenue Area,03801
Oliver Brown,4,"Fleet Street, Portsmouth, New Hampshire 03801, United States",43.0761325714286,-70.7589378571429,Downtown,03801
Julia Reed,0,"313 Lincoln Avenue, Portsmouth, New Hampshire 03801, United States",43.068372,-70.759701,Lincoln,03801
Daisy Johnson,0,"Willard Avenue, Portsmouth, New Hampshire 03801, United States",43.0642175,-70.7653895,Wibird Area,03801
Isaac Lee,2,"26 Austin Lane, Portsmouth, NH 03801",43.072857,-70.761806,Goodwin Park,03801
Oliver Green,4,"482 Richards Avenue, Portsmouth, New Hampshire 03801, United States",43.067128,-70.757259,Richards Avenue Area,03801
Nancy Kim,3,"529 Richards Lane, Portsmouth, NH 03801",43.067267,-70.757361,Richards Avenue Area,03801
Lily Brown,3,"180 Gardner Street, Portsmouth, New Hampshire 03801, United States",43.074667,-70.75007,South End,03801
Lily Scott,2,"Gardner Street, Portsmouth, New Hampshire 03801, United States",43.074546,-70.7508,South End,03801
Michael Brown,2,"332 Whipple Street, Manchester, New Hampshire 03102, United States",42.99134,-71.484609,Notre Dame,03102
Oliver Adams,2,"245 Lincoln Avenue, Portsmouth, New Hampshire 03801, United States",43.068988,-70.759089,Richards Avenue Area,03801
Bob Johnson,0,"Daniel Street, Portsmouth, New Hampshire 03801, United States",43.0775006666667,-70.7554263333333,Downtown,03801
Michael Miller,5,"122 Salter Street, Portsmouth, New Hampshire 03801, United States",43.072347,-70.748953,South End,03801
Tina Johnson,1,"876 Sagamore Avenue, Portsmouth, New Hampshire 03801, United States",43.055998,-70.750264,Sagamore Grove,03801
Ethan Baker,3,"104 Gardner Street, Portsmouth, New Hampshire 03801, United States",43.074667,-70.75007,South End,03801
Julia Green,2,"13 Thornton Street, Portsmouth, New Hampshire 03801, United States",43.077336,-70.772341,Christian Shore,03801
Fiona Allen,0,"Willard Avenue, Portsmouth, New Hampshire 03801, United States",43.0642175,-70.7653895,Wibird Area,03801
Quincy Harris,4,"129 Lincoln Avenue, Portsmouth, New Hampshire 03801, United States",43.06955,-70.756772,Richards Avenue Area,03801
Oliver Miller,0,"29 Echo Avenue, Portsmouth, New Hampshire 03801, United States",43.08431,-70.787494,Frank Jones Farm,03801
Isaac Brown,0,"552 Greenleaf Avenue, Portsmouth, New Hampshire 03801, United States",43.053645,-70.778239,Portsmouth Plains,03801
Lily Garcia,0,"298 Woodbury Avenue, Portsmouth, New Hampshire 03801, United States",43.073973,-70.777493,Christian Shore,03801
Paula Hill,0,"Pinehurst Road, Portsmouth, New Hampshire 03801, United States",43.06348,-70.7591115,Broad Street,03801
Nancy Allen,0,"Kane Street, Portsmouth, New Hampshire 03801, United States",43.0784705,-70.7714085,Christian Shore,03801
Charlie Scott,5,"Willard Avenue, Portsmouth, New Hampshire 03801, United States",43.0642175,-70.7653895,Wibird Area,03801
George Brown,5,"449 Austin Street, Portsmouth, New Hampshire 03801, United States",43.070501,-70.766219,Goodwin Park,03801
Michael White,2,"Whipple Street, Portsmouth, New Hampshire 03801, United States",43.0752045,-70.7757859,Christian Shore,03801
Tina Turner,3,"128 Willard Avenue, Portsmouth, New Hampshire 03801, United States",43.064089,-70.765063,Wibird Area,03801
Lily Adams,3,"Adams Avenue, Portsmouth, New Hampshire 03801, United States",43.037709,-70.7667475,Elwyn Park,03801
Nancy Smith,1,"967 Greenleaf Avenue, Portsmouth, New Hampshire 03801, United States",43.053331,-70.778824,Portsmouth Plains,03801
Bob Davis,4,"930 Wibird Street, Portsmouth, New Hampshire 03801, United States",43.063979,-70.762506,Wibird Area,03801
Kevin Turner,2,"342 Gates Street, Portsmouth, New Hampshire 03801, United States",43.075065,-70.750352,South End,03801
Paula White,3,"Parker Street, Portsmouth, New Hampshire 03801, United States",43.0755905,-70.76288,Islington Creek,03801
Kevin Miller,2,"216 Woodbury Avenue, Portsmouth, New Hampshire 03801, United States",43.07331,-70.777681,Christian Shore,03801
Paula Scott,1,"27 Coakley Road, Portsmouth, New Hampshire 03801, United States",43.06937,-70.784051,Coakley Road,03801
Ethan Harris,5,"947 Marcy Court, Portsmouth, NH 03801",43.070774,-70.749611,South End,03801
Paula Baker,5,"554 Spinney Road, Portsmouth, New Hampshire 03801, United States",43.062765,-70.773061,Lafayette Park,03801
Kevin Lee,1,"Pinehurst Road, Portsmouth, New Hampshire 03801, United States",43.06348,-70.7591115,Broad Street,03801
Alice Wilson,3,"Gardner Street, Portsmouth, New Hampshire 03801, United States",43.074546,-70.7508,South End,03801
Fiona Kim,1,"75 Elwyn Road, Portsmouth, NH 03801",43.069584,-70.756791,Richards Avenue Area,03801
Julia Johnson,4,"South Mill Street, Portsmouth, New Hampshire 03801, United States",43.07322,-70.75026,South End,03801
Alice Wilson,2,"864 Miller Avenue, Portsmouth, New Hampshire 03801, United States",43.066111,-70.757953,Lincoln,03801
Isaac Davis,5,"756 Richards Avenue, Portsmouth, New Hampshire 03801, United States",43.067025,-70.757192,Richards Avenue Area,03801
Kevin Baker,2,"208 Austin Lane, Portsmouth, NH 03801",43.071662,-70.764683,Goodwin Park,03801
Oliver Smith,1,"Langdon Street, Portsmouth, New Hampshire 03801, United States",43.074516,-70.7653624344262,Islington Creek,03801
Kevin Green,1,"436 Marcy Court, Portsmouth, NH 03801",43.07227,-70.750131,South End,03801
Hannah Lee,5,"Gardner Street, Portsmouth, New Hampshire 03801, United States",43.074546,-70.7508,South End,03801
Sam Brown,4,"Salter Street, Portsmouth, New Hampshire 03801, United States",43.0725,-70.74937,South End,03801
Hannah Wilson,3,"980 Maplewood Avenue, Portsmouth, New Hampshire 03801, United States",43.08172,-70.779461,Frank Jones Farm,03801
Bob Brown,1,"Mechanic Street, Portsmouth, New Hampshire 03801, United States",43.07441,-70.750145,South End,03801
Quincy Scott,2,"425 Peverly Hill Road, Portsmouth, New Hampshire 03801, United States",43.053135,-70.779039,Portsmouth Plains,03801
Alice Turner,2,"Denise Street, Portsmouth, New Hampshire 03801, United States",43.0266005,-70.7987575,Maplehaven,03801
Kevin Wilson,2,"Salter Street, Portsmouth, New Hampshire 03801, United States",43.0725,-70.74937,South End,03801
Sam Garcia,4,"197 Greenleaf Avenue, Portsmouth, New Hampshire 03801, United States",43.055973,-70.77366,Portsmouth Plains,03801
Oliver Adams,1,"Brewster Street, Portsmouth, New Hampshire 03801, United States",43.07469,-70.7647515,Islington Creek,03801
Alice Reed,4,"217 Deer Street, Portsmouth, New Hampshire 03801, United States",43.078822,-70.760562,North End,03801
Lily Garcia,0,"Congress Street, Portsmouth, New Hampshire 03801, United States",43.076422,-70.759307,Downtown,03801
Julia Reed,2,"788 Austin Court, Portsmouth, NH 03801",43.07178,-70.76416,Goodwin Park,03801
Sam Brown,5,"490 Deer Street, Portsmouth, New Hampshire 03801, United States",43.078931,-70.760402,North End,03801
Hannah Turner,0,"265 Lincoln Avenue, Portsmouth, New Hampshire 03801, United States",43.068647,-70.759224,Lincoln,03801
Alice Adams,1,"Langdon Street, Portsmouth, New Hampshire 03801, United States",43.074516,-70.7653624344262,Islington Creek,03801
Fiona Garcia,4,"715 High Street, Portsmouth, New Hampshire 03801, United States",43.079048,-70.759912,Downtown,03801
Sam Scott,0,"Deer Street, Portsmouth, New Hampshire 03801, United States",43.078175,-70.760861,North End,03801
Bob Garcia,3,"632 Wibird Street, Portsmouth, New Hampshire 03801, United States",43.064188,-70.762618,Wibird Area,03801
Kevin Kim,5,"595 Spinney Road, Portsmouth, New Hampshire 03801, United States",43.062984,-70.773227,Lafayette Park,03801
Julia Turner,4,"213 Cass Street, Portsmouth, New Hampshire 03801, United States",43.069456,-70.766898,Cass Street,03801
Ethan Adams,2,"Mechanic Street, Portsmouth, New Hampshire 03801, United States",43.07441,-70.750145,South End,03801
Charlie Adams,4,"Cabot Street, Portsmouth, New Hampshire 03801, United States",43.072342,-70.7652100192308,Goodwin Park,03801
Charlie Hill,3,"263 Broad Street, Portsmouth, New Hampshire 03801, United States",43.066319,-70.759393,Lincoln,03801
Alice Johnson,5,"74 Echo Avenue, Portsmouth, New Hampshire 03801, United States",43.084025,-70.787915,Frank Jones Farm,03801
Michael Davis,5,"946 Pleasant Street, Portsmouth, New Hampshire 03801, United States",43.073077,-70.750813,South End,03801
Daisy White,5,"Freedom Circle, Portsmouth, New Hampshire 03801, United States",43.03016,-70.79462,Maplehaven,03801
Fiona Davis,4,"883 Wibird Street, Portsmouth, New Hampshire 03801, United States",43.06401,-70.762523,Wibird Area,03801
Ethan Miller,3,"228 Miller Avenue, Portsmouth, New Hampshire 03801, United States",43.068758,-70.759592,Lincoln,03801
Michael Adams,5,"456 Islington Street, Portsmouth, New Hampshire 03801, United States",43.072183,-70.768624,Islington Creek,03801
Charlie Allen,0,"15 Gardner Street, Portsmouth, New Hampshire 03801, United States",43.074361,-70.751078,South End,03801
Alice Kim,2,"465 Pleasant Street, Portsmouth, New Hampshire 03801, United States",43.073173,-70.750992,South End,03801
Oliver Smith,3,"South Mill Street, Portsmouth, New Hampshire 03801, United States",43.07322,-70.75026,South End,03801
George Kim,2,"247 Cass Street, Portsmouth, New Hampshire 03801, United States",43.069371,-70.766359,Cass Street,03801
Kevin Miller,1,"109 Rockland Street, Portsmouth, New Hampshire 03801, United States",43.070316,-70.758708,Richards Avenue Area,03801
Rachel Johnson,0,"157 Miller Avenue, Portsmouth, New Hampshire 03801, United States",43.070801,-70.761306,Lincoln,03801
Rachel Kim,0,"Hancock Street, Portsmouth, New Hampshire 03801, United States",43.07497,-70.7528205,South End,03801
Daisy Green,4,"Farm Lane, Portsmouth, New Hampshire 03801, United States",43.078808,-70.785036,Frank Jones Farm,03801
Isaac Baker,5,"229 Richards Lane, Portsmouth, NH 03801",43.071155,-70.760125,Richards Avenue Area,03801
Paula Adams,3,"892 Maplewood Avenue, Portsmouth, New Hampshire 03801, United States",43.081461,-70.777602,Frank Jones Farm,03801
Oliver Green,4,"128 Brackett Lane, Portsmouth, New Hampshire 03801, United States",43.067873,-70.753796,Little Harbor,03801
Michael Adams,5,"Farm Lane, Portsmouth, New Hampshire 03801, United States",43.078808,-70.785036,Frank Jones Farm,03801
Bob Reed,5,"528 Kearsarge Way, Portsmouth, New Hampshire 03801, United States",43.089743,-70.772392,Atlantic Heights,03801
Bob Lee,5,"428 Pleasant Street, Portsmouth, New Hampshire 03801, United States",43.073197,-70.751568,South End,03801
Michael Green,4,"Salter Street, Portsmouth, New Hampshire 03801, United States",43.0725,-70.74937,South End,03801
Quincy Smith,4,"82 Maple Haven, Portsmouth, NH 03801",43.081285,-70.784831,Frank Jones Farm,03801
Quincy Scott,0,"Coakley Road, Portsmouth, New Hampshire 03801, United States",43.069067,-70.783198,Coakley Road,03801
Paula Allen,5,"Kane Street, Portsmouth, New Hampshire 03801, United States",43.0784705,-70.7714085,Christian Shore,03801
Ethan Garcia,1,"Hancock Street, Portsmouth, New Hampshire 03801, United States",43.07497,-70.7528205,South End,03801
Julia Brown,0,"Farm Lane, Portsmouth, New Hampshire 03801, United States",43.078808,-70.785036,Frank Jones Farm,03801
Quincy Allen,3,"Langdon Street, Portsmouth, New Hampshire 03801, United States",43.074516,-70.7653624344262,Islington Creek,03801
Alice Garcia,1,"Cass Street, Portsmouth, New Hampshire 03801, United States",43.07001,-70.76752,Cass Street,03801
Quincy Harris,3,"764 Middle Street, Portsmouth, New Hampshire 03801, United States",43.066488,-70.76708,Wibird Area,03801
Kevin Kim,1,"244 Willard Avenue, Portsmouth, New Hampshire 03801, United States",43.063187,-70.767803,Wibird Area,03801
Hannah Miller,3,"497 Wibird Street, Portsmouth, New Hampshire 03801, United States",43.06427,-70.762662,Wibird Area,03801
Isaac Green,3,"83 Gardner Street, Portsmouth, New Hampshire 03801, United States",43.074629,-70.750193,South End,03801
Bob Baker,3,"275 Maplewood Avenue, Portsmouth, New Hampshire 03801, United States",43.079884,-70.766588,Christian Shore,03801
Ethan Davis,4,"Salter Street, Portsmouth, New Hampshire 03801, United States",43.0725,-70.74937,South End,03801
Fiona Kim,3,"Farm Lane, Portsmouth, New Hampshire 03801, United States",43.078808,-70.785036,Frank Jones Farm,03801
Fiona Garcia,0,"Salter Street, Portsmouth, New Hampshire 03801, United States",43.0725,-70.74937,South End,03801
Lily Harris,3,"Hancock Street, Portsmouth, New Hampshire 03801, United States",43.07497,-70.7528205,South End,03801
Sam Clark,1,"223 Langdon Street, Portsmouth, New Hampshire 03801, United States",43.075434,-70.765592,Islington Creek,03801
Kevin Garcia,0,"21 Richards Lane, Portsmouth, NH 03801",43.072766,-70.761292,Richards Avenue Area,03801
Rachel Lee,4,"Cass Street, Portsmouth, New Hampshire 03801, United States",43.07001,-70.76752,Cass Street,03801
Nancy Brown,1,"Gardner Street, Portsmouth, New Hampshire 03801, United States",43.074546,-70.7508,South End,03801
George Miller,4,"Mechanic Street, Portsmouth, New Hampshire 03801, United States",43.07441,-70.750145,South End,03801
Rachel Adams,1,"6 Rockland Street, Portsmouth, NH 03801",43.07478,-70.763226,Islington Creek,03801
Oliver Brown,1,"932 Spinney Road, Portsmouth, New Hampshire 03801, United States",43.062592,-70.772933,Lafayette Park,03801
Ethan Johnson,4,"Gates Street, Portsmouth, New Hampshire 03801, United States",43.07483,-70.751949,South End,03801
Oliver Adams,2,"765 Greenleaf Avenue, Portsmouth, New Hampshire 03801, United States",43.053365,-70.77876,Portsmouth Plains,03801
Oliver Baker,0,"411 Wedgewood Road, Portsmouth, NH 03801",43.019361,-71.455552,North End,03104
Charlie Scott,2,"892 Marcy Street, Portsmouth, New Hampshire 03801, United States",43.070796,-70.749626,South End,03801
Quincy Davis,2,"919 Court Street, Portsmouth, New Hampshire 03801, United States",43.077173,-70.75298,South End,03801
Isaac Lee,5,"Hancock Street, Portsmouth, New Hampshire 03801, United States",43.07497,-70.7528205,South End,03801
Alice Garcia,5,"804 Woodbury Avenue, Portsmouth, New Hampshire 03801, United States",43.079169,-70.782362,Frank Jones Farm,03801
Rachel Hill,0,"805 South Street, Portsmouth, New Hampshire 03801, United States",43.065129,-70.760205,Broad Street,03801
Lily Smith,4,"474 Greenleaf Avenue, Portsmouth, New Hampshire 03801, United States",43.053684,-70.778167,Portsmouth Plains,03801
Kevin Clark,0,"114 Sagamore Avenue, Portsmouth, New Hampshire 03801, United States",43.06479,-70.757273,Broad Street,03801
George Allen,2,"413 Leslie Drive, Portsmouth, New Hampshire 03801, United States",43.082407,-70.771542,Cutts Cove,03801
Paula Green,4,"Deer Street, Portsmouth, New Hampshire 03801, United States",43.078175,-70.760861,North End,03801
Alice Smith,4,"234 Wedgewood Road, Portsmouth, NH 03801",43.019954,-71.457189,North End,03104
Quincy Adams,2,"683 High Street, Portsmouth, New Hampshire 03801, United States",43.079044,-70.759906,North End,03801
Daisy Brown,3,"573 Marcy Street, Portsmouth, New Hampshire 03801, United States",43.070935,-70.749683,South End,03801
Alice Hill,5,"472 South Street, Portsmouth, New Hampshire 03801, United States",43.068261,-70.755522,Richards Avenue Area,03801
Julia White,1,"Cass Street, Portsmouth, New Hampshire, United States",43.0701,-70.76919,Cass Street,03801
Ethan Green,4,"Mechanic Street, Portsmouth, New Hampshire 03801, United States",43.07441,-70.750145,South End,03801
Oliver Adams,0,"924 Spinney Road, Portsmouth, New Hampshire 03801, United States",43.062596,-70.772936,Lafayette Park,03801
Oliver Hill,4,"192 Farm Lane, Portsmouth, New Hampshire 03801, United States",43.077908,-70.786606,Frank Jones Farm,03801
Ethan Scott,4,"Parker Street, Portsmouth, New Hampshire 03801, United States",43.0755905,-70.76288,Islington Creek,03801
Fiona Allen,0,"467 Richards Avenue, Portsmouth, New Hampshire 03801, United States",43.066953,-70.757144,Richards Avenue Area,03801
Rachel Hill,4,"939 Marcy Court, Portsmouth, NH 03801",43.070777,-70.749613,South End,03801
Fiona Garcia,5,"694 Spinney Road, Portsmouth, New Hampshire 03801, United States",43.062701,-70.773013,Lafayette Park,03801
Lily Baker,0,"Mechanic Street, Portsmouth, New Hampshire 03801, United States",43.07441,-70.750145,South End,03801
Julia Turner,5,"Parker Street, Portsmouth, New Hampshire 03801, United States",43.0755905,-70.76288,Islington Creek,03801
Lily Adams,3,"Adams Avenue, Portsmouth, New Hampshire 03801, United States",43.037709,-70.7667475,Elwyn Park,03801
Tina Turner,5,"Farm Lane, Portsmouth, New Hampshire 03801, United States",43.078808,-70.785036,Frank Jones Farm,03801
Oliver Turner,2,"651 Broad Street, Portsmouth, New Hampshire 03801, United States",43.061988,-70.756513,Broad Street,03801
Nancy Johnson,3,"17 Islington Street, Portsmouth, New Hampshire 03801, United States",43.075411,-70.761665,Islington Creek,03801
Michael Adams,5,"475 Court Street, Portsmouth, New Hampshire 03801, United States",43.077002,-70.753333,Downtown,03801
Paula Miller,0,"Gardner Street, Portsmouth, New Hampshire 03801, United States",43.074546,-70.7508,South End,03801
Kevin Wilson,2,"Pamela Drive, Portsmouth, New Hampshire 03801, United States",43.026801,-70.7985215,Maplehaven,03801
Michael White,1,"729 Spinney Road, Portsmouth, New Hampshire 03801, United States",43.062943,-70.773196,Lafayette Park,03801
Tina Lee,0,"Brewster Street, Portsmouth, New Hampshire 03801, United States",43.07469,-70.7647515,Islington Creek,03801
Alice Harris,3,"522 Marcy Street, Portsmouth, New Hampshire 03801, United States",43.070952,-70.749688,South End,03801
Alice Scott,2,"625 Sherbourne Ave, Portsmouth, NH 03801",43.068898,-70.757461,Richards Avenue Area,03801
Kevin Scott,3,"Farm Lane, Portsmouth, New Hampshire 03801, United States",43.078808,-70.785036,Frank Jones Farm,03801
Ethan Brown,5,"181 Sagamore Avenue, Portsmouth, New Hampshire 03801, United States",43.063714,-70.756619,Broad Street,03801
George Miller,5,"322 Cass Street, Portsmouth, New Hampshire 03801, United States",43.068803,-70.765881,Cass Street,03801
Tina Miller,4,"Cass Street, Portsmouth, New Hampshire 03801, United States",43.07001,-70.76752,Cass Street,03801
Hannah Harris,1,"Salter Street, Portsmouth, New Hampshire 03801, United States",43.0725,-70.74937,South End,03801
Alice Reed,0,"834 Middle Street, Portsmouth, NH 03801",43.058341,-70.779988,Portsmouth Plains,03801
Michael Hill,5,"509 Coolidge Drive, Portsmouth, New Hampshire 03801, United States",43.037977,-70.7754,Elwyn Park,03801
Hannah Miller,4,"Taft Road, Portsmouth, New Hampshire 03801, United States",43.040909,-70.769801,Elwyn Park,03801
Sam Wilson,4,"142 Richards Lane, Portsmouth, NH 03801",43.071201,-70.760157,Richards Avenue Area,03801
Julia Adams,2,"604 Richards Lane, Portsmouth, NH 03801",43.067188,-70.757303,Richards Avenue Area,03801
Isaac Turner,5,"Freedom Circle, Portsmouth, New Hampshire 03801, United States",43.03016,-70.79462,Maplehaven,03801
Sam Johnson,1,"Taft Road, Portsmouth, New Hampshire 03801, United States",43.040909,-70.769801,Elwyn Park,03801
Oliver Adams,4,"311 Leslie Drive, Portsmouth, New Hampshire 03801, United States",43.082831,-70.76963,Cutts Cove,03801
Nancy Lee,3,"Brewster Street, Portsmouth, New Hampshire 03801, United States",43.07469,-70.7647515,Islington Creek,03801
Quincy Wilson,5,"Fleet Street, Portsmouth, New Hampshire 03801, United States",43.0761325714286,-70.7589378571429,Downtown,03801
Isaac Smith,3,"35 Langdon Street, Portsmouth, New Hampshire 03801, United States",43.07435,-70.765056,Islington Creek,03801
Hannah Wilson,5,"879 Thornton Street, Portsmouth, New Hampshire 03801, United States",43.073537,-70.776242,Christian Shore,03801
Tina Turner,2,"Salter Street, Portsmouth, New Hampshire 03801, United States",43.0725,-70.74937,South End,03801
Isaac Smith,4,"85 Sherbourne Ave, Portsmouth, NH 03801",43.069364,-70.75741,Richards Avenue Area,03801
Fiona Baker,3,"Larry Lane, Portsmouth, New Hampshire 03801, United States",43.068882,-70.78367,Coakley Road,03801
Lily Harris,3,"Pamela Drive, Portsmouth, New Hampshire 03801, United States",43.026801,-70.7985215,Maplehaven,03801
Nancy Allen,5,"104 Wibird Street, Portsmouth, New Hampshire 03801, United States",43.067633,-70.764211,Wibird Area,03801
Lily Adams,3,"83 Miller Avenue, Portsmouth, New Hampshire 03801, United States",43.0705,-70.760939,Lincoln,03801
Quincy Smith,5,"165 Gardner Street, Portsmouth, New Hampshire 03801, United States",43.074667,-70.75007,South End,03801
Quincy Davis,2,"Cabot Street, Portsmouth, New Hampshire 03801, United States",43.072342,-70.7652100192308,Goodwin Park,03801
Paula Clark,0,"Rockland Street, Portsmouth, New Hampshire 03801, United States",43.069858,-70.759441,Richards Avenue Area,03801
Fiona Allen,4,"135 Gates Street, Portsmouth, New Hampshire 03801, United States",43.07483,-70.751949,South End,03801
Bob Wilson,2,"Pinehurst Road, Portsmouth, New Hampshire 03801, United States",43.06348,-70.7591115,Broad Street,03801
Rachel Clark,2,"235 Rockland Street, Portsmouth, New Hampshire 03801, United States",43.070016,-70.759639,Richards Avenue Area,03801
Ethan Smith,3,"Cass Street, Portsmouth, New Hampshire, United States",43.0701,-70.76919,Cass Street,03801
Charlie Johnson,3,"413 Islington Street, Portsmouth, New Hampshire 03801, United States",43.072702,-70.76789,Islington Creek,03801
Ethan Clark,3,"436 Coolidge Drive, Portsmouth, New Hampshire 03801, United States",43.038049,-70.775331,Elwyn Park,03801
Oliver Lee,3,"Fernald Court, Portsmouth, New Hampshire 03801, United States",43.069881,-70.7488905,Little Harbor,03801
Charlie Turner,1,"526 Leslie Drive, Portsmouth, New Hampshire 03801, United States",43.082397,-70.7709,Cutts Cove,03801
Nancy Harris,4,"Mechanic Street, Portsmouth, New Hampshire 03801, United States",43.07441,-70.750145,South End,03801
Oliver Turner,2,"Mariette Drive, Portsmouth, New Hampshire 03801, United States",43.0260915,-70.799387,Maplehaven,03801
Bob Miller,5,"68 Farm Lane, Portsmouth, New Hampshire 03801, United States",43.078908,-70.783765,Frank Jones Farm,03801
Oliver Adams,1,"929 Marcy Street, Portsmouth, New Hampshire 03801, United States",43.070781,-70.749616,South End,03801
Julia Baker,3,"Willard Avenue, Portsmouth, New Hampshire 03801, United States",43.0642175,-70.7653895,Wibird Area,03801
Oliver Adams,1,"303 Gates Street, Portsmouth, New Hampshire 03801, United States",43.075065,-70.750352,South End,03801
Fiona Scott,4,"Gardner Street, Portsmouth, New Hampshire 03801, United States",43.074546,-70.7508,South End,03801
Paula Allen,4,"919 Wibird Street, Portsmouth, New Hampshire 03801, United States",43.063985,-70.76251,Wibird Area,03801
Bob Allen,5,"Fernald Court, Portsmouth, New Hampshire 03801, United States",43.069881,-70.7488905,Little Harbor,03801
Lily Scott,5,"153 Madison Street, Portsmouth, New Hampshire 03801, United States",43.070672,-70.766454,Goodwin Park,03801
Julia Scott,3,"Gardner Street, Portsmouth, New Hampshire 03801, United States",43.074546,-70.7508,South End,03801
Nancy Green,4,"872 Austin Court, Portsmouth, NH 03801",43.07178,-70.76416,Goodwin Park,03801
Rachel Brown,3,"699 Coolidge Drive, Portsmouth, New Hampshire 03801, United States",43.037837,-70.775535,Elwyn Park,03801
Ethan Kim,4,"816 Broad Street, Portsmouth, New Hampshire 03801, United States",43.061908,-70.756446,Broad Street,03801
Fiona Lee,4,"Langdon Street, Portsmouth, New Hampshire 03801, United States",43.074516,-70.7653624344262,Islington Creek,03801
Quincy Smith,1,"Rockland Street, Portsmouth, New Hampshire 03801, United States",43.069858,-70.759441,Richards Avenue Area,03801
Lily Brown,5,"71 Market Street, Portsmouth, New Hampshire 03801, United States",43.078181,-70.757502,Downtown,03801
Fiona Davis,0,"328 Marcy Street, Portsmouth, New Hampshire 03801, United States",43.073367,-70.750773,South End,03801
Hannah Hill,2,"Daniel Street, Portsmouth, New Hampshire 03801, United States",43.0775006666667,-70.7554263333333,Downtown,03801
Lily Baker,2,"Deer Street, Portsmouth, New Hampshire 03801, United States",43.078175,-70.760861,North End,03801
Tina Turner,1,"96 South Street, Portsmouth, New Hampshire 03801, United States",43.071623,-70.75134,South End,03801
Lily Reed,0,"Congress Street, Portsmouth, New Hampshire 03801, United States",43.076422,-70.759307,Downtown,03801
Isaac Miller,3,"Salter Street, Portsmouth, New Hampshire 03801, United States",43.0725,-70.74937,South End,03801
Kevin Adams,3,"562 Miller Avenue, Portsmouth, New Hampshire 03801, United States",43.066188,-70.757995,Lincoln,03801
Hannah Garcia,2,"Brackett Lane, Portsmouth, New Hampshire 03801, United States",43.068337,-70.754319,Little Harbor,03801
Kevin White,4,"247 Leslie Drive, Portsmouth, New Hampshire 03801, United States",43.082869,-70.769565,Cutts Cove,03801
Fiona Reed,4,"Mechanic Street, Portsmouth, New Hampshire 03801, United States",43.07441,-70.750145,South End,03801
Hannah Reed,3,"52 Congress Street, Portsmouth, New Hampshire 03801, United States",43.076491,-70.758912,Downtown,03801
Hannah Davis,3,"287 Marcy Court, Portsmouth, NH 03801",43.073949,-70.751021,South End,03801
Nancy Hill,0,"312 Leslie Drive, Portsmouth, New Hampshire 03801, United States",43.083086,-70.769192,Cutts Cove,03801
Julia Hill,0,"245 Sagamore Avenue, Portsmouth, New Hampshire 03801, United States",43.063047,-70.756155,Broad Street,03801
Quincy Davis,5,"Rockland Street, Portsmouth, New Hampshire 03801, United States",43.069858,-70.759441,Richards Avenue Area,03801
Bob Miller,3,"307 Marcy Street, Portsmouth, New Hampshire 03801, United States",43.073528,-70.750861,South End,03801
Paula Wilson,4,"396 Parrott Avenue, Portsmouth, New Hampshire 03801, United States",43.071214,-70.760122,Richards Avenue Area,03801
Daisy Green,5,"Brewster Street, Portsmouth, New Hampshire 03801, United States",43.07469,-70.7647515,Islington Creek,03801
Lily Brown,4,"621 Greenleaf Avenue, Portsmouth, New Hampshire 03801, United States",43.053389,-70.778715,Portsmouth Plains,03801
Quincy Johnson,3,"Pinehurst Road, Portsmouth, New Hampshire 03801, United States",43.06348,-70.7591115,Broad Street,03801
George Reed,2,"606 Market Street, Portsmouth, NH 03801",43.0819105,-70.7675995,Cutts Cove,03801
Sam Garcia,1,"104 McKinley Road, Portsmouth, NH 03801",43.040347,-70.772653,Elwyn Park,03801
Hannah Reed,0,"796 Lincoln Avenue, Portsmouth, New Hampshire 03801, United States",43.066694,-70.766773,Wibird Area,03801
Ethan Allen,5,"Austin Street, Portsmouth, New Hampshire 03801, United States",43.07178,-70.76416,Goodwin Park,03801
Tina Green,4,"671 Pleasant Street, Portsmouth, New Hampshire 03801, United States",43.073132,-70.750915,South End,03801
Charlie Hill,0,"969 Sheffield Road, Manchester, New Hampshire 03103, United States",42.944338,-71.415717,Crystal Lake,03103
Alice Wilson,5,"162 Maple Haven, Portsmouth, NH 03801",43.081357,-70.784673,Frank Jones Farm,03801
Hannah Harris,3,"Brewster Street, Portsmouth, New Hampshire 03801, United States",43.07469,-70.7647515,Islington Creek,03801
George Brown,5,"99 Austin Lane, Portsmouth, NH 03801",43.072497,-70.763147,Goodwin Park,03801
Michael Garcia,5,"Taft Road, Portsmouth, New Hampshire 03801, United States",43.040909,-70.769801,Elwyn Park,03801
Rachel Johnson,1,"Pinehurst Road, Portsmouth, New Hampshire 03801, United States",43.06348,-70.7591115,Broad Street,03801
Lily Davis,0,"Cass Street, Portsmouth, New Hampshire 03801, United States",43.07001,-70.76752,Cass Street,03801
Charlie White,3,"154 Rockland Street, Portsmouth, New Hampshire 03801, United States",43.070209,-70.759105,Richards Avenue Area,03801
Alice Allen,5,"751 Woodbury Avenue, Portsmouth, New Hampshire 03801, United States",43.078378,-70.781717,Frank Jones Farm,03801
Nancy Wilson,2,"Cass Street, Portsmouth, New Hampshire 03801, United States",43.07001,-70.76752,Cass Street,03801
Isaac Baker,0,"223 Richards Avenue, Portsmouth, New Hampshire 03801, United States",43.071155,-70.760125,Richards Avenue Area,03801
Tina Harris,0,"224 Hancock Street, Manchester, New Hampshire 03101, United States",42.975034,-71.468355,Bakersville,03101
Ethan White,4,"Parker Street, Portsmouth, New Hampshire 03801, United States",43.0755905,-70.76288,Islington Creek,03801
Charlie Allen,1,"Willard Avenue, Portsmouth, New Hampshire 03801, United States",43.0642175,-70.7653895,Wibird Area,03801
Lily Garcia,0,"734 Marcy Street, Portsmouth, New Hampshire 03801, United States",43.070863,-70.749661,South End,03801
Julia Miller,0,"Kane Street, Portsmouth, New Hampshire 03801, United States",43.0784705,-70.7714085,Christian Shore,03801
Paula Scott,4,"Willard Avenue, Portsmouth, New Hampshire 03801, United States",43.0642175,-70.7653895,Wibird Area,03801
Julia Clark,3,"192 Aldrich Road, Portsmouth, New Hampshire 03801, United States",43.066944,-70.770149,Lafayette Park,03801
Nancy Wilson,5,"127 Aldrich Road, Portsmouth, New Hampshire 03801, United States",43.067122,-70.769292,Lafayette Park,03801
Tina Johnson,4,"Deer Street, Portsmouth, New Hampshire 03801, United States",43.078175,-70.760861,North End,03801
Lily White,5,"Kane Street, Portsmouth, New Hampshire 03801, United States",43.0784705,-70.7714085,Christian Shore,03801
George Baker,0,"Mariette Drive, Portsmouth, New Hampshire 03801, United States",43.0260915,-70.799387,Maplehaven,03801
Hannah Smith,2,"Fernald Court, Portsmouth, New Hampshire 03801, United States",43.069881,-70.7488905,Little Harbor,03801
Sam Baker,4,"Fernald Court, Portsmouth, New Hampshire 03801, United States",43.069881,-70.7488905,Little Harbor,03801
George Kim,4,"Brackett Lane, Portsmouth, New Hampshire 03801, United States",43.068337,-70.754319,Little Harbor,03801
Quincy Baker,1,"842 Marcy Street, Portsmouth, New Hampshire 03801, United States",43.070817,-70.749637,South End,03801
Michael Lee,3,"997 Leslie Drive, Portsmouth, New Hampshire 03801, United States",43.082409,-70.771643,Cutts Cove,03801
Quincy Hill,4,"41 Daniel Street, Portsmouth, New Hampshire 03801, United States",43.077269,-70.756831,Downtown,03801
Hannah Lee,5,"746 Woodbury Avenue, Portsmouth, New Hampshire 03801, United States",43.078586,-70.781886,Frank Jones Farm,03801
Tina Smith,0,"90 Deer Street, Portsmouth, New Hampshire 03801, United States",43.079099,-70.760155,North End,03801
Isaac Adams,4,"859 Wedgewood Road, Portsmouth, NH 03801",43.019049,-71.455486,North End,03104
Quincy Garcia,2,"539 Miller Avenue, Portsmouth, New Hampshire 03801, United States",43.066197,-70.758,Lincoln,03801
Nancy Kim,0,"Larry Lane, Portsmouth, New Hampshire 03801, United States",43.068882,-70.78367,Coakley Road,03801
Fiona Allen,1,"679 Marcy Court, Portsmouth, NH 03801",43.070887,-70.749668,South End,03801
Kevin Baker,0,"442 Middle Street, Portsmouth, New Hampshire 03801, United States",43.070459,-70.763797,Goodwin Park,03801
Julia Smith,4,"Congress Street, Portsmouth, New Hampshire 03801, United States",43.076422,-70.759307,Downtown,03801
Julia Green,1,"Parker Street, Portsmouth, New Hampshire 03801, United States",43.0755905,-70.76288,Islington Creek,03801
Alice Brown,2,"324 Rockland Street, Portsmouth, New Hampshire 03801, United States",43.069277,-70.761438,Lincoln,03801
Bob Reed,3,"783 Greenleaf Avenue, Portsmouth, New Hampshire 03801, United States",43.053362,-70.778766,Portsmouth Plains,03801
Isaac Harris,0,"Mariette Drive, Portsmouth, New Hampshire 03801, United States",43.0260915,-70.799387,Maplehaven,03801
Ethan Baker,2,"Deer Street, Portsmouth, New Hampshire 03801, United States",43.078175,-70.760861,North End,03801
Ethan Johnson,2,"Cass Street, Portsmouth, New Hampshire 03801, United States",43.07001,-70.76752,Cass Street,03801
Tina Clark,4,"Gates Street, Portsmouth, New Hampshire 03801, United States",43.07483,-70.751949,South End,03801
Kevin Smith,4,"Salter Street, Portsmouth, New Hampshire 03801, United States",43.0725,-70.74937,South End,03801
Hannah Kim,2,"Parker Street, Portsmouth, New Hampshire 03801, United States",43.0755905,-70.76288,Islington Creek,03801
Bob Kim,5,"19 High Street, Portsmouth, New Hampshire 03801, United States",43.076932,-70.758065,Downtown,03801
Charlie Wilson,0,"Denise Street, Portsmouth, New Hampshire 03801, United States",43.0266005,-70.7987575,Maplehaven,03801
George Green,4,"85 New Castle Avenue, Portsmouth, New Hampshire 03801, United States",43.070222,-70.750574,Little Harbor,03801
Bob Harris,1,"529 McKinley Road, Portsmouth, NH 03801",43.040078,-70.768478,Elwyn Park,03801
Sam Smith,2,"Suzanne Drive, Portsmouth, New Hampshire 03801, United States",43.02857,-70.7943675,Maplehaven,03801
Lily Garcia,3,"33 Echo Avenue, Portsmouth, New Hampshire 03801, United States",43.084251,-70.787582,Frank Jones Farm,03801
Paula Clark,5,"State Street, Portsmouth, New Hampshire 03801, United States",43.074455,-70.7608645454546,Goodwin Park,03801
Oliver Hill,5,"930 Woodbury Avenue, Portsmouth, New Hampshire 03801, United States",43.081199,-70.78404,Frank Jones Farm,03801
Ethan Smith,0,"37 Echo Avenue, Portsmouth, New Hampshire 03801, United States",43.084191,-70.78767,Frank Jones Farm,03801
Kevin Allen,0,"Pamela Drive, Portsmouth, New Hampshire 03801, United States",43.026801,-70.7985215,Maplehaven,03801
Kevin Reed,3,"264 Greenleaf Avenue, Portsmouth, New Hampshire 03801, United States",43.055178,-70.775191,Portsmouth Plains,03801
Kevin Baker,0,"82 Leslie Drive, Portsmouth, New Hampshire 03801, United States",43.082321,-70.770472,Cutts Cove,03801
Ethan Smith,5,"690 Court Street, Portsmouth, New Hampshire 03801, United States",43.077087,-70.753159,Downtown,03801
Paula Smith,5,"Gardner Street, Portsmouth, New Hampshire 03801, United States",43.074546,-70.7508,South End,03801
Hannah Baker,1,"354 Lafayette Road, Portsmouth, New Hampshire 03801, United States",43.064413,-70.767374,Lafayette Park,03801
Sam Turner,5,"404 Lincoln Avenue, Portsmouth, New Hampshire 03801, United States",43.067718,-70.761546,Lincoln,03801
Nancy Johnson,3,"57 Salter Street, Portsmouth, New Hampshire 03801, United States",43.072516,-70.749225,South End,03801
George Davis,0,"Langdon Street, Portsmouth, New Hampshire 03801, United States",43.074516,-70.7653624344262,Islington Creek,03801
Tina Baker,1,"76 Aldrich Road, Portsmouth, New Hampshire 03801, United States",43.067341,-70.76828,Lafayette Park,03801
Ethan White,4,"Freedom Circle, Portsmouth, New Hampshire 03801, United States",43.03016,-70.79462,Maplehaven,03801
Fiona Hill,3,"470 Coolidge Drive, Portsmouth, New Hampshire 03801, United States",43.038023,-70.775356,Elwyn Park,03801
Ethan Johnson,4,"226 Willard Avenue, Portsmouth, New Hampshire 03801, United States",43.063326,-70.767211,Wibird Area,03801
George Davis,5,"766 Austin Court, Portsmouth, NH 03801",43.07178,-70.76416,Goodwin Park,03801
Michael White,5,"Congress Street, Portsmouth, New Hampshire 03801, United States",43.076422,-70.759307,Downtown,03801
Isaac Allen,3,"92 Cabot Street, Portsmouth, New Hampshire 03801, United States",43.071596,-70.764599,Goodwin Park,03801
Bob Baker,0,"Pinehurst Road, Portsmouth, New Hampshire 03801, United States",43.06348,-70.7591115,Broad Street,03801
Paula Wilson,1,"31 Leslie Drive, Portsmouth, New Hampshire 03801, United States",43.082997,-70.769345,Cutts Cove,03801
Rachel Smith,2,"Parker Street, Portsmouth, New Hampshire 03801, United States",43.0755905,-70.76288,Islington Creek,03801
Hannah Reed,3,"Mechanic Street, Portsmouth, New Hampshire 03801, United States",43.07441,-70.750145,South End,03801
Quincy Green,0,"1 Coolidge Drive, Portsmouth, New Hampshire 03801, United States",43.043154,-70.772858,Elwyn Park,03801
Lily Lee,1,"513 Spinney Road, Portsmouth, New Hampshire 03801, United States",43.063008,-70.773246,Lafayette Park,03801
Alice Miller,0,"Gates Street, Portsmouth, New Hampshire 03801, United States",43.07483,-70.751949,South End,03801
Tina Johnson,1,"820 Spinney Road, Portsmouth, New Hampshire 03801, United States",43.062644,-70.772971,Lafayette Park,03801
George Adams,1,"694 Greenleaf Avenue, Portsmouth, New Hampshire 03801, United States",43.053574,-70.778371,Portsmouth Plains,03801
Kevin Baker,3,"Adams Avenue, Portsmouth, New Hampshire 03801, United States",43.037709,-70.7667475,Elwyn Park,03801
Sam Hill,1,"278 Leslie Drive, Portsmouth, New Hampshire 03801, United States",43.083104,-70.768633,Cutts Cove,03801
Alice Baker,1,"Parker Street, Portsmouth, New Hampshire 03801, United States",43.0755905,-70.76288,Islington Creek,03801
Nancy Reed,2,"273 Pleasant Street, Portsmouth, New Hampshire 03801, United States",43.074154,-70.75393,South End,03801
Tina Adams,0,"Fleet Street, Portsmouth, New Hampshire 03801, United States",43.0761325714286,-70.7589378571429,Downtown,03801
Quincy Scott,1,"157 Aldrich Road, Portsmouth, New Hampshire 03801, United States",43.067042,-70.769678,Lafayette Park,03801
Alice Baker,2,"Gardner Street, Portsmouth, New Hampshire 03801, United States",43.074546,-70.7508,South End,03801
Kevin White,1,"124 Cabot Street, Portsmouth, New Hampshire 03801, United States",43.071722,-70.765059,Goodwin Park,03801
Fiona Reed,2,"589 Sherbourne Ave, Portsmouth, NH 03801",43.068898,-70.757461,Richards Avenue Area,03801
Ethan Hill,2,"96 Pinehurst Road, Portsmouth, New Hampshire 03801, United States",43.063643,-70.75949,Broad Street,03801
Oliver Baker,4,"20 Aldrich Road, Portsmouth, New Hampshire 03801, United States",43.067595,-70.767021,Lafayette Park,03801
Lily Clark,0,"969 Coolidge Drive, Portsmouth, New Hampshire 03801, United States",43.037637,-70.775727,Elwyn Park,03801
Quincy Brown,3,"310 Peverly Hill Road, Portsmouth, New Hampshire 03801, United States",43.054279,-70.7797,Portsmouth Plains,03801
Lily Miller,3,"114 Sagamore Avenue, Portsmouth, New Hampshire 03801, United States",43.06479,-70.757273,Broad Street,03801
Lily Lee,0,"84 FW Hartford Drive, Portsmouth, NH 03801",43.034272,-70.773034,Elwyn Park,03801
Charlie Turner,3,"Austin Street, Portsmouth, New Hampshire 03801, United States",43.07178,-70.76416,Goodwin Park,03801
Hannah Garcia,4,"811 Austin Court, Portsmouth, NH 03801",43.07178,-70.76416,Goodwin Park,03801
Nancy Reed,5,"Pamela Drive, Portsmouth, New Hampshire 03801, United States",43.026801,-70.7985215,Maplehaven,03801
Michael Adams,1,"Deer Street, Portsmouth, New Hampshire 03801, United States",43.078175,-70.760861,North End,03801
Michael Baker,1,"Suzanne Drive, Portsmouth, New Hampshire 03801, United States",43.02857,-70.7943675,Maplehaven,03801
Fiona Johnson,4,"930 Richards Avenue, Portsmouth, New Hampshire 03801, United States",43.066835,-70.757068,Richards Avenue Area,03801
Hannah Brown,5,"Gates Street, Portsmouth, New Hampshire 03801, United States",43.07483,-70.751949,South End,03801
Sam Reed,2,"Gates Street, Portsmouth, New Hampshire 03801, United States",43.07483,-70.751949,South End,03801
Isaac White,5,"367 Rockland Street, Portsmouth, New Hampshire 03801, United States",43.069238,-70.761537,Lincoln,03801
Fiona White,3,"891 Pleasant Street, Portsmouth, New Hampshire 03801, United States",43.073088,-70.750834,South End,03801
Charlie Garcia,3,"365 Greenleaf Avenue, Portsmouth, New Hampshire 03801, United States",43.054067,-70.777453,Portsmouth Plains,03801
Charlie White,2,"Brewster Street, Portsmouth, New Hampshire 03801, United States",43.07469,-70.7647515,Islington Creek,03801
Nancy Brown,2,"Mechanic Street, Portsmouth, New Hampshire 03801, United States",43.07441,-70.750145,South End,03801
Oliver Green,0,"982 Lincoln Avenue, Portsmouth, New Hampshire 03801, United States",43.066659,-70.767066,Wibird Area,03801
Tina Allen,5,"Denise Street, Portsmouth, New Hampshire 03801, United States",43.0266005,-70.7987575,Maplehaven,03801
Lily Baker,3,"Mariette Drive, Portsmouth, New Hampshire 03801, United States",43.0260915,-70.799387,Maplehaven,03801
Michael Smith,1,"Parker Street, Portsmouth, New Hampshire 03801, United States",43.0755905,-70.76288,Islington Creek,03801
Tina Hill,0,"Salter Street, Portsmouth, New Hampshire 03801, United States",43.0725,-70.74937,South End,03801
Lily Miller,1,"162 Pleasant Street, Portsmouth, New Hampshire 03801, United States",43.07457,-70.755303,South End,03801
Tina White,2,"Gates Street, Portsmouth, New Hampshire 03801, United States",43.07483,-70.751949,South End,03801
Lily Harris,0,"317 Richards Avenue, Portsmouth, New Hampshire 03801, United States",43.06904,-70.758607,Richards Avenue Area,03801
Lily Lee,5,"Echo Avenue, Portsmouth, New Hampshire 03801, United States",43.0837015,-70.7889985,Frank Jones Farm,03801
Tina Lee,3,"Gardner Street, Portsmouth, New Hampshire 03801, United States",43.074546,-70.7508,South End,03801
Lily Green,4,"405 Lincoln Avenue, Portsmouth, New Hampshire 03801, United States",43.06777,-70.761322,Lincoln,03801
Lily Harris,5,"Salter Street, Portsmouth, New Hampshire 03801, United States",43.0725,-70.74937,South End,03801
Ethan Harris,3,"94 Cass Street, Portsmouth, New Hampshire 03801, United States",43.071479,-70.769915,Cass Street,03801
Charlie Brown,2,"Brackett Lane, Portsmouth, New Hampshire 03801, United States",43.068337,-70.754319,Little Harbor,03801
Isaac Brown,5,"145 Broad Street, Portsmouth, New Hampshire 03801, United States",43.06794,-70.760679,Lincoln,03801
Oliver Davis,0,"297 Coakley Road, Portsmouth, New Hampshire 03801, United States",43.068565,-70.784553,Coakley Road,03801
Nancy White,0,"255 Marcy Street, Portsmouth, New Hampshire 03801, United States",43.074535,-70.751493,South End,03801
Oliver Brown,2,"Langdon Street, Portsmouth, New Hampshire 03801, United States",43.074516,-70.7653624344262,Islington Creek,03801
George Smith,1,"730 Austin Court, Portsmouth, NH 03801",43.07178,-70.76416,Goodwin Park,03801
Ethan Johnson,0,"Rockland Street, Portsmouth, New Hampshire 03801, United States",43.069858,-70.759441,Richards Avenue Area,03801
Lily Smith,4,"Brewster Street, Portsmouth, New Hampshire 03801, United States",43.07469,-70.7647515,Islington Creek,03801
Sam Johnson,5,"405 Pleasant Street, Portsmouth, New Hampshire 03801, United States",43.07361,-70.751757,South End,03801
Hannah Harris,0,"Brackett Lane, Portsmouth, New Hampshire 03801, United States",43.068337,-70.754319,Little Harbor,03801
Lily Turner,5,"Cabot Street, Portsmouth, New Hampshire 03801, United States",43.072342,-70.7652100192308,Goodwin Park,03801
Charlie Turner,1,"88 Salter Street, Portsmouth, New Hampshire 03801, United States",43.072348,-70.749011,South End,03801
Oliver Clark,1,"827 Marcy Street, Portsmouth, New Hampshire 03801, United States",43.070823,-70.74964,South End,03801
Lily Green,2,"746 Kearsarge Way, Portsmouth, New Hampshire 03801, United States",43.091985,-70.771367,Atlantic Heights,03801
Isaac Brown,0,"164 Peverly Hill Road, Portsmouth, New Hampshire 03801, United States",43.055791,-70.780839,Portsmouth Plains,03801
Julia Adams,2,"872 Marcy Street, Portsmouth, New Hampshire 03801, United States",43.070805,-70.74963,South End,03801
Isaac Harris,3,"400 Coolidge Drive, Portsmouth, New Hampshire 03801, United States",43.037949,-70.775962,Elwyn Park,03801
Charlie White,2,"515 Maplewood Avenue, Portsmouth, New Hampshire 03801, United States",43.080819,-70.771013,Cutts Cove,03801
Tina Adams,4,"103 Mechanic Street, Portsmouth, New Hampshire 03801, United States",43.075042,-70.750338,South End,03801
Tina Kim,2,"212 McKinley Road, Portsmouth, NH 03801",43.039993,-70.770032,Elwyn Park,03801
Kevin Kim,2,"536 Wibird Street, Portsmouth, New Hampshire 03801, United States",43.064255,-70.762654,Wibird Area,03801
Oliver Adams,4,"17 Daniel Street, Portsmouth, New Hampshire 03801, United States",43.077343,-70.756525,Downtown,03801
Hannah Smith,0,"505 Broad Street, Portsmouth, New Hampshire 03801, United States",43.063398,-70.757467,Broad Street,03801
Julia Wilson,4,"301 Wibird Street, Portsmouth, New Hampshire 03801, United States",43.065162,-70.763125,Wibird Area,03801
Sam White,3,"872 Kearsarge Way, Portsmouth, New Hampshire 03801, United States",43.092094,-70.771301,Atlantic Heights,03801
Ethan Kim,3,"886 Sagamore Avenue, Portsmouth, New Hampshire 03801, United States",43.055865,-70.750114,Sagamore Grove,03801
Michael Hill,2,"Echo Avenue, Portsmouth, New Hampshire 03801, United States",43.0837015,-70.7889985,Frank Jones Farm,03801
Quincy Turner,5,"128 Salter Street, Portsmouth, New Hampshire 03801, United States",43.072347,-70.748953,South End,03801
Quincy Wilson,3,"Aldrich Road, Portsmouth, New Hampshire 03801, United States",43.067279,-70.770189,Lafayette Park,03801
Isaac Wilson,2,"45 Brewster Street, Portsmouth, New Hampshire 03801, United States",43.074705,-70.764518,Islington Creek,03801
Kevin Davis,1,"663 Richards Lane, Portsmouth, NH 03801",43.067126,-70.757258,Richards Avenue Area,03801
Tina Scott,0,"893 Wibird Street, Portsmouth, New Hampshire 03801, United States",43.064003,-70.762519,Wibird Area,03801
Lily Brown,5,"21 Leslie Drive, Portsmouth, New Hampshire 03801, United States",43.083003,-70.769334,Cutts Cove,03801
Quincy Green,5,"184 Leslie Drive, Portsmouth, New Hampshire 03801, United States",43.082033,-70.769369,Cutts Cove,03801
Alice Kim,4,"40 South Street, Portsmouth, New Hampshire 03801, United States",43.072024,-70.75089,South End,03801
Sam Kim,4,"333 Richards Lane, Portsmouth, NH 03801",43.069019,-70.758588,Richards Avenue Area,03801
Sam Miller,3,"219 Wibird Street, Portsmouth, New Hampshire 03801, United States",43.066173,-70.763605,Wibird Area,03801
Kevin Green,2,"114 High Street, Portsmouth, New Hampshire 03801, United States",43.078257,-70.75911,Downtown,03801
Lily Baker,4,"639 South Street, Portsmouth, New Hampshire 03801, United States",43.066734,-70.757047,Richards Avenue Area,03801
Michael Reed,0,"421 Lincoln Avenue, Portsmouth, New Hampshire 03801, United States",43.067695,-70.761646,Lincoln,03801
Michael Clark,1,"896 Court Street, Portsmouth, New Hampshire 03801, United States",43.077165,-70.752997,Downtown,03801
Charlie Green,4,"Larry Lane, Portsmouth, New Hampshire 03801, United States",43.068882,-70.78367,Coakley Road,03801
Michael Smith,1,"409 Richards Lane, Portsmouth, NH 03801",43.06812,-70.757507,Richards Avenue Area,03801
Rachel Green,1,"Cabot Street, Portsmouth, New Hampshire 03801, United States",43.072342,-70.7652100192308,Goodwin Park,03801
Nancy Garcia,4,"Farm Lane, Portsmouth, New Hampshire 03801, United States",43.078808,-70.785036,Frank Jones Farm,03801
Quincy Garcia,3,"Gardner Street, Portsmouth, New Hampshire 03801, United States",43.074546,-70.7508,South End,03801
Bob Smith,0,"775 Leslie Drive, Portsmouth, New Hampshire 03801, United States",43.082403,-70.771293,Cutts Cove,03801
Isaac Wilson,2,"867 Kearsarge Way, Portsmouth, New Hampshire 03801, United States",43.092091,-70.771303,Atlantic Heights,03801
Fiona Baker,2,"900 High Street, Portsmouth, New Hampshire 03801, United States",43.079068,-70.759936,North End,03801
Tina Allen,0,"109 Peverly Hill Road, Portsmouth, New Hampshire 03801, United States",43.055609,-70.780685,Portsmouth Plains,03801
Alice Kim,2,"109 Brackett Lane, Portsmouth, New Hampshire 03801, United States",43.067873,-70.753796,Little Harbor,03801
Alice Adams,1,"425 Spinney Road, Portsmouth, New Hampshire 03801, United States",43.063035,-70.773266,Lafayette Park,03801
Sam Hill,4,"899 Kearsarge Way, Portsmouth, New Hampshire 03801, United States",43.092118,-70.771286,Atlantic Heights,03801
Lily Reed,2,"Salter Street, Portsmouth, New Hampshire 03801, United States",43.0725,-70.74937,South End,03801
Bob Green,0,"617 McKinley Road, Portsmouth, NH 03801",43.040078,-70.768478,Elwyn Park,03801
Tina Wilson,1,"South Mill Street, Portsmouth, New Hampshire 03801, United States",43.07322,-70.75026,South End,03801
Julia Smith,0,"665 Marcy Court, Portsmouth, NH 03801",43.070893,-70.74967,South End,03801
Ethan Smith,2,"Mechanic Street, Portsmouth, New Hampshire 03801, United States",43.07441,-70.750145,South End,03801
Oliver Smith,0,"Coakley Road, Portsmouth, New Hampshire 03801, United States",43.069067,-70.783198,Coakley Road,03801
Quincy Hill,4,"Pinehurst Road, Portsmouth, New Hampshire 03801, United States",43.06348,-70.7591115,Broad Street,03801
Lily Scott,5,"456 Richards Avenue, Portsmouth, New Hampshire 03801, United States",43.067484,-70.757521,Richards Avenue Area,03801
Tina Johnson,4,"302 Sagamore Avenue, Portsmouth, New Hampshire 03801, United States",43.062411,-70.755518,Broad Street,03801
Paula Allen,2,"164 Coakley Road, Portsmouth, New Hampshire 03801, United States",43.068664,-70.784528,Coakley Road,03801
Paula Adams,3,"164 Fleet Street, Portsmouth, New Hampshire 03801, United States",43.077147,-70.759507,Downtown,03801
Oliver Kim,4,"639 Sherbourne Ave, Portsmouth, NH 03801",43.068898,-70.757461,Richards Avenue Area,03801
Fiona Turner,4,"95 Deer Street, Portsmouth, New Hampshire 03801, United States",43.079088,-70.760171,North End,03801
Alice Harris,1,"143 Echo Avenue, Portsmouth, New Hampshire 03801, United States",43.083259,-70.789046,Frank Jones Farm,03801
Oliver Harris,1,"882 Leslie Drive, Portsmouth, New Hampshire 03801, United States",43.082406,-70.771461,Cutts Cove,03801
Tina Kim,4,"278 Echo Avenue, Portsmouth, New Hampshire 03801, United States",43.08279,-70.791101,Frank Jones Farm,03801
Nancy Baker,1,"393 Austin Court, Portsmouth, NH 03801",43.070509,-70.766208,Goodwin Park,03801
Isaac Scott,4,"63 Gardner Street, Portsmouth, New Hampshire 03801, United States",43.074587,-70.750329,South End,03801
Daisy Baker,1,"369 Essex Avenue, Portsmouth, New Hampshire 03801, United States",43.060998,-70.776343,Portsmouth Plains,03801
Isaac Hill,1,"Gates Street, Portsmouth, New Hampshire 03801, United States",43.07483,-70.751949,South End,03801
Julia Adams,2,"427 Richards Avenue, Portsmouth, New Hampshire 03801, United States",43.067585,-70.757595,Richards Avenue Area,03801
Hannah Adams,0,"Coakley Road, Portsmouth, New Hampshire, United States",43.068703,-70.78272,Coakley Road,03801
Daisy Wilson,5,"Brewster Street, Portsmouth, New Hampshire 03801, United States",43.07469,-70.7647515,Islington Creek,03801
Rachel Reed,5,"19 Pleasant Street, Portsmouth, New Hampshire 03801, United States",43.076392,-70.757334,Downtown,03801
Paula Allen,3,"Echo Avenue, Portsmouth, New Hampshire 03801, United States",43.0837015,-70.7889985,Frank Jones Farm,03801
Paula Allen,4,"Hancock Street, Portsmouth, New Hampshire 03801, United States",43.07497,-70.7528205,South End,03801
Hannah Turner,3,"322 Wedgewood Road, Portsmouth, NH 03801",43.019575,-71.455597,North End,03104
Julia Miller,2,"3 Elwyn Road, Portsmouth, NH 03801",43.070672,-70.757337,Richards Avenue Area,03801
Fiona Hill,2,"Adams Avenue, Portsmouth, New Hampshire 03801, United States",43.037709,-70.7667475,Elwyn Park,03801
Isaac Hill,0,"Market Street, Portsmouth, New Hampshire 03801, United States",43.0822131818182,-70.7626760909091,Nobles Island,03801
Isaac Brown,1,"407 Lincoln Avenue, Portsmouth, New Hampshire 03801, United States",43.067761,-70.761362,Lincoln,03801
Tina Smith,4,"Larry Lane, Portsmouth, New Hampshire 03801, United States",43.068882,-70.78367,Coakley Road,03801
Bob Hill,0,"Parker Street, Portsmouth, New Hampshire 03801, United States",43.0755905,-70.76288,Islington Creek,03801
Hannah Reed,4,"54 Cass Street, Portsmouth, New Hampshire 03801, United States",43.071116,-70.769405,Cass Street,03801
Julia Green,2,"Fernald Court, Portsmouth, New Hampshire 03801, United States",43.069881,-70.7488905,Little Harbor,03801
Alice Brown,2,"Salter Street, Portsmouth, New Hampshire 03801, United States",43.0725,-70.74937,South End,03801
George Lee,2,"783 Maplewood Avenue, Portsmouth, New Hampshire 03801, United States",43.081175,-70.775548,Frank Jones Farm,03801
Julia Scott,2,"Whipple Street, Portsmouth, New Hampshire 03801, United States",43.0752045,-70.7757859,Christian Shore,03801
Lily Harris,2,"352 Gates Street, Portsmouth, New Hampshire 03801, United States",43.075065,-70.750352,South End,03801
George Baker,2,"Kane Street, Portsmouth, New Hampshire 03801, United States",43.0784705,-70.7714085,Christian Shore,03801
Nancy Kim,4,"Taft Road, Portsmouth, New Hampshire 03801, United States",43.040909,-70.769801,Elwyn Park,03801
Kevin Miller,1,"Pinehurst Road, Portsmouth, New Hampshire 03801, United States",43.06348,-70.7591115,Broad Street,03801
Nancy Turner,3,"289 Austin Street, Portsmouth, New Hampshire 03801, United States",43.070671,-70.765997,Goodwin Park,03801
Lily Johnson,0,"813 Austin Court, Portsmouth, NH 03801",43.07178,-70.76416,Goodwin Park,03801
Ethan Miller,4,"668 Maplewood Avenue, Portsmouth, New Hampshire 03801, United States",43.08102,-70.773673,Cutts Cove,03801
Paula Adams,2,"Larry Lane, Portsmouth, New Hampshire 03801, United States",43.068882,-70.78367,Coakley Road,03801
Sam Johnson,1,"307 Leslie Drive, Portsmouth, New Hampshire 03801, United States",43.082834,-70.769626,Cutts Cove,03801
Sam Turner,1,"75 Austin Street, Portsmouth, New Hampshire 03801, United States",43.072582,-70.762872,Goodwin Park,03801
Fiona Harris,2,"209 Parrott Avenue, Portsmouth, New Hampshire 03801, United States",43.071201,-70.760157,Richards Avenue Area,03801
Paula Wilson,1,"835 Sagamore Avenue, Portsmouth, New Hampshire 03801, United States",43.056512,-70.750905,Sagamore Grove,03801
Fiona Baker,5,"Gardner Street, Portsmouth, New Hampshire 03801, United States",43.074546,-70.7508,South End,03801
George Miller,0,"Adams Avenue, Portsmouth, New Hampshire 03801, United States",43.037709,-70.7667475,Elwyn Park,03801
Michael Wilson,0,"Kearsarge Way, Portsmouth, New Hampshire 03801, United States",43.08814,-70.7740905,Atlantic Heights,03801
Julia White,1,"257 Middle Street, Portsmouth, NH 03801",43.062892,-70.771428,Lafayette Park,03801
Oliver Baker,4,"106 Farm Lane, Portsmouth, New Hampshire 03801, United States",43.078695,-70.784577,Frank Jones Farm,03801
Tina Clark,1,"132 Cabot Street, Portsmouth, New Hampshire 03801, United States",43.071896,-70.764986,Goodwin Park,03801
Bob Wilson,0,"Farm Lane, Portsmouth, New Hampshire 03801, United States",43.078808,-70.785036,Frank Jones Farm,03801
Daisy Wilson,0,"122 Lincoln Avenue, Portsmouth, New Hampshire 03801, United States",43.069625,-70.756499,Richards Avenue Area,03801
Hannah Brown,0,"Brackett Lane, Portsmouth, New Hampshire 03801, United States",43.068337,-70.754319,Little Harbor,03801
Isaac Turner,0,"Gardner Street, Portsmouth, New Hampshire 03801, United States",43.074546,-70.7508,South End,03801
George Davis,1,"107 Richards Avenue, Portsmouth, NH 03801",43.07156,-70.76027,Richards Avenue Area,03801
Oliver White,1,"Gardner Street, Portsmouth, New Hampshire 03801, United States",43.074546,-70.7508,South End,03801
Michael White,4,"206 Cass Street, Portsmouth, New Hampshire 03801, United States",43.070406,-70.768394,Cass Street,03801
Oliver Clark,0,"147 Richards Lane, Portsmouth, NH 03801",43.071201,-70.760157,Richards Avenue Area,03801
Paula Clark,2,"Rockland Street, Portsmouth, New Hampshire 03801, United States",43.069858,-70.759441,Richards Avenue Area,03801
Sam Johnson,3,"871 Spinney Road, Portsmouth, New Hampshire 03801, United States",43.062901,-70.773163,Lafayette Park,03801
Julia Brown,2,"49 Gardner Street, Portsmouth, New Hampshire 03801, United States",43.07461,-70.750253,South End,03801
Bob Adams,0,"563 Richards Lane, Portsmouth, NH 03801",43.067231,-70.757334,Richards Avenue Area,03801
Alice White,1,"Kearsarge Way, Portsmouth, New Hampshire 03801, United States",43.08814,-70.7740905,Atlantic Heights,03801
Bob Scott,0,"788 Marcy Street, Portsmouth, New Hampshire 03801, United States",43.07084,-70.749649,South End,03801
Fiona Allen,3,"69 Pinehurst Road, Portsmouth, New Hampshire 03801, United States",43.064222,-70.75968,Broad Street,03801
Daisy Garcia,0,"Fleet Street, Portsmouth, New Hampshire 03801, United States",43.0761325714286,-70.7589378571429,Downtown,03801
Quincy Smith,0,"390 Wibird Street, Portsmouth, New Hampshire 03801, United States",43.063979,-70.762506,Wibird Area,03801
Michael White,4,"537 Spinney Road, Portsmouth, New Hampshire 03801, United States",43.063001,-70.77324,Lafayette Park,03801
Hannah White,3,"Daniel Street, Portsmouth, New Hampshire 03801, United States",43.0775006666667,-70.7554263333333,Downtown,03801
Michael Miller,1,"Parrott Avenue, Portsmouth, New Hampshire 03801, United States",43.07321925,-70.75892875,Richards Avenue Area,03801
George Scott,2,"550 Colonial Drive, Portsmouth, New Hampshire 03801, United States",43.063198,-70.802336,Coakley Road,03801
Kevin Scott,1,"117 Colonial Drive, Portsmouth, New Hampshire 03801, United States",43.062371,-70.801514,Coakley Road,03801
Bob Davis,3,"319 Kearsarge Way, Portsmouth, New Hampshire 03801, United States",43.086924,-70.774803,Atlantic Heights,03801
Bob Garcia,1,"805 Elwyn Road, Portsmouth, New Hampshire 03801, United States",43.045487,-70.753359,Sagamore Grove,03801
Rachel Wilson,0,"113 Beachstone Drive, Portsmouth, NH 03801",43.02545,-70.785701,Maplehaven,03801
Charlie Miller,4,"896 Market Street, Portsmouth, NH 03801",43.034726,-70.783856,Elwyn Park,03801
Julia White,1,"Osprey Drive, Portsmouth, New Hampshire 03801, United States",43.0887205,-70.782789,Frank Jones Farm,03801
Daisy Smith,0,"258 Holly Lane, Portsmouth, New Hampshire 03801, United States",43.064474,-70.804275,Coakley Road,03801
Fiona Harris,2,"Blue Heron Drive, Portsmouth, New Hampshire 03801, United States",43.08762,-70.778978,Atlantic Heights,03801
Ethan Adams,2,"63 Junkins Avenue, Portsmouth, New Hampshire 03801, United States",43.073176,-70.755557,South End,03801
Daisy Allen,3,"517 Lafayette Road, Portsmouth, New Hampshire 03801, United States",43.057123,-70.769699,Portsmouth Plains,03801
Quincy Turner,1,"711 Sagamore Avenue, Portsmouth, New Hampshire 03801, United States",43.057315,-70.751921,Sagamore Grove,03801
Alice Green,0,"359 Elwyn Road, Portsmouth, New Hampshire 03801, United States",43.045683,-70.751478,Sagamore Grove,03801
Fiona Reed,3,"148 FW Hartford Drive, Portsmouth, NH 03801",43.032541,-70.773986,Elwyn Park,03801
Oliver Clark,5,"Greenside Avenue, Portsmouth, New Hampshire 03801, United States",43.0634295,-70.8050695,Coakley Road,03801
Fiona Green,2,"916 FW Hartford Drive, Portsmouth, NH 03801",43.037984,-70.765885,Elwyn Park,03801
Daisy Reed,3,"Gosport Road, Portsmouth, New Hampshire 03801, United States",43.0478515,-70.7548105,Sagamore Grove,03801
Tina Smith,5,"848 Colonial Drive, Portsmouth, New Hampshire 03801, United States",43.062456,-70.802703,Coakley Road,03801
Michael Scott,3,"Osprey Drive, Portsmouth, New Hampshire 03801, United States",43.0887205,-70.782789,Frank Jones Farm,03801
Sam Harris,2,"518 Sagamore Avenue, Portsmouth, New Hampshire 03801, United States",43.060213,-70.753729,Broad Street,03801
Ethan Miller,3,"939 Elwyn Road, Portsmouth, New Hampshire 03801, United States",43.045449,-70.753929,Sagamore Grove,03801
Hannah Smith,4,"115 Greenleaf Avenue, Portsmouth, New Hampshire 03801, United States",43.058352,-70.77051,Portsmouth Plains,03801
Alice Allen,2,"838 Austin Lane, Portsmouth, NH 03801",43.075964,-70.757099,Downtown,03801
Quincy White,4,"72 Summit Avenue, Portsmouth, New Hampshire 03801, United States",43.061388,-70.766246,Wibird Area,03801
Sam Baker,3,"331 Elwyn Road, Portsmouth, New Hampshire 03801, United States",43.045716,-70.751363,Sagamore Grove,03801
Daisy White,4,"268 FW Hartford Drive, Portsmouth, NH 03801",43.030189,-70.771857,Elwyn Park,03801
Ethan Turner,4,"Osprey Drive, Portsmouth, New Hampshire 03801, United States",43.0887205,-70.782789,Frank Jones Farm,03801
Tina Kim,0,"36 Holly Lane, Portsmouth, New Hampshire 03801, United States",43.064504,-70.804212,Coakley Road,03801
George Hill,4,"955 Beachstone Drive, Portsmouth, NH 03801",43.02545,-70.785701,Maplehaven,03801
Rachel Clark,2,"1000 Wibird Street, Portsmouth, New Hampshire 03801, United States",43.06393,-70.76248,Wibird Area,03801
Oliver Adams,1,"937 South Street, Portsmouth, New Hampshire 03801, United States",43.066472,-70.757378,Richards Avenue Area,03801
Sam Allen,1,"68 Essex Avenue, Portsmouth, New Hampshire 03801, United States",43.063728,-70.778632,Lafayette Park,03801
Paula Adams,3,"Vaughan Street, Portsmouth, New Hampshire 03801, United States",43.0796866666667,-70.762436,North End,03801
George Green,4,"853 Peverly Hill Road, Portsmouth, New Hampshire 03801, United States",43.047279,-70.776195,Elwyn Park,03801
Michael Davis,1,"792 Elwyn Road, Portsmouth, New Hampshire 03801, United States",43.043824,-70.759726,Elwyn Park,03801
Kevin Lee,4,"453 Lafayette Road, Portsmouth, New Hampshire 03801, United States",43.058796,-70.769424,Portsmouth Plains,03801
Alice Garcia,0,"Vaughan Street, Portsmouth, New Hampshire 03801, United States",43.0796866666667,-70.762436,North End,03801
Nancy Clark,2,"642 Colonial Drive, Portsmouth, New Hampshire 03801, United States",43.063557,-70.801678,Coakley Road,03801
Michael Wilson,3,"826 Banfield Road, Portsmouth, New Hampshire 03801, United States",43.038638,-70.79772,Maplehaven,03801
Oliver Wilson,2,"Gosport Road, Portsmouth, New Hampshire 03801, United States",43.0478515,-70.7548105,Sagamore Grove,03801
Rachel Brown,4,"357 Beachstone Drive, Portsmouth, NH 03801",43.02545,-70.785701,Maplehaven,03801
Nancy Allen,4,"417 Greenside Avenue, Portsmouth, New Hampshire 03801, United States",43.063084,-70.803751,Coakley Road,03801
Rachel Johnson,4,"591 Odiorne Point Road, Portsmouth, New Hampshire 03801, United States",43.048646,-70.755318,Sagamore Grove,03801
Oliver Adams,5,"Osprey Drive, Portsmouth, New Hampshire 03801, United States",43.0887205,-70.782789,Frank Jones Farm,03801
Michael Kim,4,"235 Sheffield Road, Manchester, New Hampshire 03103, United States",42.939615,-71.422095,Crystal Lake,03103
Hannah Allen,4,"Vaughan Street, Portsmouth, New Hampshire 03801, United States",43.0796866666667,-70.762436,North End,03801
Charlie Wilson,5,"208 Mirona Road, Portsmouth, New Hampshire 03801, United States",43.049008,-70.771178,Elwyn Park,03801
Michael Allen,4,"669 Sagamore Avenue, Portsmouth, New Hampshire 03801, United States",43.05778,-70.752595,Sagamore Grove,03801
George Miller,3,"140 Middle Street, Portsmouth, New Hampshire 03801, United States",43.073868,-70.76097,Goodwin Park,03801
Sam Scott,1,"749 Junkins Avenue, Portsmouth, NH 03801",43.0616625,-70.767006609375,Wibird Area,03801
Tina Miller,0,"780 Sherburne Road, Portsmouth, New Hampshire 03801, United States",43.065582,-70.805983,Coakley Road,03801
Nancy Wilson,2,"395 New Castle Avenue, Portsmouth, NH 03801",43.07059,-70.74702,Little Harbor,03801
Ethan Lee,3,"150 Summit Avenue, Portsmouth, New Hampshire 03801, United States",43.061354,-70.766239,Wibird Area,03801
Paula Garcia,0,"Vaughan Street, Portsmouth, New Hampshire 03801, United States",43.0796866666667,-70.762436,North End,03801
Ethan Lee,5,"Parrott Avenue, Portsmouth, New Hampshire 03801, United States",43.07321925,-70.75892875,Richards Avenue Area,03801
George Reed,3,"337 Colonial Drive, Portsmouth, New Hampshire 03801, United States",43.06442,-70.797547,Coakley Road,03801
Michael Davis,2,"Vaughan Street, Portsmouth, New Hampshire 03801, United States",43.0796866666667,-70.762436,North End,03801
Bob Green,2,"742 Sagamore Avenue, Portsmouth, New Hampshire 03801, United States",43.057375,-70.752002,Sagamore Grove,03801
Hannah Turner,3,"27 Greenleaf Avenue, Portsmouth, New Hampshire 03801, United States",43.059754,-70.769562,Lafayette Park,03801
Tina Miller,2,"Osprey Drive, Portsmouth, New Hampshire 03801, United States",43.0887205,-70.782789,Frank Jones Farm,03801
Julia Miller,3,"495 Maple Haven, Portsmouth, NH 03801",43.075964,-70.757099,Downtown,03801
Bob Hill,4,"254 Parrott Avenue, Portsmouth, New Hampshire 03801, United States",43.073433,-70.75813,Goodwin Park,03801
Sam Clark,3,"863 Elwyn Road, Portsmouth, New Hampshire 03801, United States",43.045481,-70.753606,Sagamore Grove,03801
Isaac Hill,4,"245 Colonial Drive, Portsmouth, New Hampshire 03801, United States",43.062497,-70.801863,Coakley Road,03801
Nancy White,1,"Mason Avenue, Portsmouth, New Hampshire 03801, United States",43.0641275,-70.7996085,Coakley Road,03801
Kevin Wilson,2,"473 New Castle Avenue, Portsmouth, New Hampshire 03801, United States",43.071115,-70.741376,Little Harbor,03801
Alice Reed,0,"635 FW Hartford Drive, Portsmouth, NH 03801",43.037804,-70.76593,Elwyn Park,03801
Nancy Johnson,2,"497 Maple Haven, Portsmouth, NH 03801",43.075964,-70.757099,Downtown,03801
Bob Baker,1,"165 FW Hartford Drive, Portsmouth, NH 03801",43.031928,-70.773646,Elwyn Park,03801
Rachel Miller,3,"435 McKinley Road, Portsmouth, NH 03801",43.042254,-70.763188,Elwyn Park,03801
Charlie Smith,3,"814 Odiorne Point Road, Portsmouth, New Hampshire 03801, United States",43.04874,-70.755564,Sagamore Grove,03801
Ethan Kim,2,"376 Echo Avenue, Portsmouth, New Hampshire 03801, United States",43.082884,-70.791176,Frank Jones Farm,03801
Bob Harris,5,"29 State Street, Portsmouth, New Hampshire 03801, United States",43.077374,-70.753759,Downtown,03801
Michael Brown,0,"88 Harding Road, Portsmouth, New Hampshire 03801, United States",43.038069,-70.765876,Elwyn Park,03801
Fiona Miller,3,"652 Colonial Drive, Portsmouth, New Hampshire 03801, United States",43.063484,-70.802359,Coakley Road,03801
George Brown,1,"492 Colonial Drive, Portsmouth, New Hampshire 03801, United States",43.064868,-70.799868,Coakley Road,03801
Daisy Garcia,4,"633 Sagamore Avenue, Portsmouth, New Hampshire 03801, United States",43.058174,-70.753175,Sagamore Grove,03801
Rachel Allen,4,"302 New Castle Avenue, Portsmouth, New Hampshire 03801, United States",43.070628,-70.745998,Little Harbor,03801
Rachel Green,5,"674 Odiorne Point Road, Portsmouth, New Hampshire 03801, United States",43.048663,-70.755365,Sagamore Grove,03801
Rachel Clark,3,"977 Austin Lane, Portsmouth, NH 03801",43.075964,-70.757099,Downtown,03801
Tina Reed,4,"Blue Heron Drive, Portsmouth, New Hampshire 03801, United States",43.08762,-70.778978,Atlantic Heights,03801
Nancy Kim,1,"974 South Street, Portsmouth, New Hampshire 03801, United States",43.066439,-70.757419,Richards Avenue Area,03801
George Garcia,3,"537 Peverly Hill Road, Portsmouth, New Hampshire 03801, United States",43.049328,-70.77881,Portsmouth Plains,03801
Oliver White,3,"Gosport Road, Portsmouth, New Hampshire 03801, United States",43.0478515,-70.7548105,Sagamore Grove,03801
Isaac Smith,0,"57 State Street, Portsmouth, New Hampshire 03801, United States",43.077347,-70.753834,Downtown,03801
Fiona Adams,4,"572 New Castle Avenue, Portsmouth, New Hampshire 03801, United States",43.070688,-70.739367,Little Harbor,03801
Michael Scott,0,"41 Greenleaf Avenue, Portsmouth, New Hampshire 03801, United States",43.059549,-70.76968,Lafayette Park,03801
Paula Davis,5,"Blue Heron Drive, Portsmouth, New Hampshire 03801, United States",43.08762,-70.778978,Atlantic Heights,03801
Paula Kim,0,"Andrew Jarvis Drive, Portsmouth, New Hampshire 03801, United States",43.058417,-70.767733,Wibird Area,03801
Ethan White,0,"420 Woodbury Avenue, Portsmouth, New Hampshire 03801, United States",43.075238,-70.778831,Christian Shore,03801
Nancy Smith,0,"824 Peverly Hill Road, Portsmouth, New Hampshire 03801, United States",43.046328,-70.774605,Elwyn Park,03801
Kevin Wilson,1,"37 Essex Avenue, Portsmouth, New Hampshire 03801, United States",43.063818,-70.778707,Lafayette Park,03801
Rachel Green,2,"284 McKinley Road, Portsmouth, NH 03801",43.039862,-70.766527,Elwyn Park,03801
Michael White,3,"778 State Street, Portsmouth, New Hampshire 03801, United States",43.077153,-70.754329,Downtown,03801
Kevin Hill,2,"664 Lafayette Road, Portsmouth, New Hampshire 03801, United States",43.055306,-70.770048,Portsmouth Plains,03801
Michael Garcia,2,"Summit Avenue, Portsmouth, New Hampshire 03801, United States",43.0613915,-70.765841,Wibird Area,03801
Charlie Scott,5,"Andrew Jarvis Drive, Portsmouth, New Hampshire 03801, United States",43.058417,-70.767733,Wibird Area,03801
Michael Hill,1,"552 Sagamore Avenue, Portsmouth, New Hampshire 03801, United States",43.059665,-70.753684,Broad Street,03801
Tina Adams,4,"Greenside Avenue, Portsmouth, New Hampshire 03801, United States",43.0634295,-70.8050695,Coakley Road,03801
Isaac White,0,"48 Kearsarge Way, Portsmouth, New Hampshire 03801, United States",43.085262,-70.775446,Atlantic Heights,03801
Ethan Scott,3,"Summit Avenue, Portsmouth, New Hampshire 03801, United States",43.0613915,-70.765841,Wibird Area,03801
George Brown,2,"164 Andrew Jarvis Drive, Portsmouth, New Hampshire 03801, United States",43.059287,-70.766689,Wibird Area,03801
Nancy Garcia,0,"584 South Street, Portsmouth, New Hampshire 03801, United States",43.066284,-70.757615,Richards Avenue Area,03801
Julia Kim,1,"858 Odiorne Point Road, Portsmouth, New Hampshire 03801, United States",43.048763,-70.755627,Sagamore Grove,03801
Michael Garcia,4,"437 Cabot Street, Portsmouth, New Hampshire 03801, United States",43.073892,-70.767194,Islington Creek,03801
Lily Clark,5,"Harding Road, Portsmouth, New Hampshire 03801, United States",43.0414885,-70.763811,Elwyn Park,03801
Fiona Green,2,"792 Odiorne Point Road, Portsmouth, New Hampshire 03801, United States",43.048728,-70.755533,Sagamore Grove,03801
Charlie Harris,3,"Summit Avenue, Portsmouth, New Hampshire 03801, United States",43.0613915,-70.765841,Wibird Area,03801
Tina Baker,1,"362 South Street, Portsmouth, New Hampshire 03801, United States",43.069106,-70.754324,Little Harbor,03801
Sam Lee,5,"Gosport Road, Portsmouth, New Hampshire 03801, United States",43.0478515,-70.7548105,Sagamore Grove,03801
Rachel Smith,1,"Harding Road, Portsmouth, New Hampshire 03801, United States",43.0414885,-70.763811,Elwyn Park,03801
Bob White,1,"137 Essex Avenue, Portsmouth, New Hampshire 03801, United States",43.06307,-70.77808,Portsmouth Plains,03801
Paula Clark,4,"131 Holly Lane, Portsmouth, New Hampshire 03801, United States",43.064442,-70.802185,Coakley Road,03801
Kevin Wilson,0,"383 McKinley Road, Portsmouth, NH 03801",43.042293,-70.763094,Elwyn Park,03801
Sam Scott,0,"737 Banfield Road, Portsmouth, New Hampshire 03801, United States",43.04071,-70.792981,Maplehaven,03801
Michael Allen,4,"Essex Avenue, Portsmouth, New Hampshire 03801, United States",43.062251,-70.7777175,Portsmouth Plains,03801
Daisy Johnson,4,"Harding Road, Portsmouth, New Hampshire 03801, United States",43.0414885,-70.763811,Elwyn Park,03801
Paula Johnson,3,"Summit Avenue, Portsmouth, New Hampshire 03801, United States",43.0613915,-70.765841,Wibird Area,03801
Rachel Davis,4,"797 South Street, Portsmouth, New Hampshire 03801, United States",43.066595,-70.757223,Richards Avenue Area,03801
Sam White,1,"Osprey Drive, Portsmouth, New Hampshire 03801, United States",43.0887205,-70.782789,Frank Jones Farm,03801
Michael Brown,0,"57 Junkins Avenue, Portsmouth, New Hampshire 03801, United States",43.073176,-70.755557,South End,03801
Quincy Wilson,3,"Greenside Avenue, Portsmouth, New Hampshire 03801, United States",43.0634295,-70.8050695,Coakley Road,03801
Charlie Kim,2,"860 Colonial Drive, Portsmouth, New Hampshire 03801, United States",43.062451,-70.802712,Coakley Road,03801
Bob Green,5,"Blue Heron Drive, Portsmouth, New Hampshire 03801, United States",43.08762,-70.778978,Atlantic Heights,03801
Isaac Hill,0,"361 Vaughan Street, Portsmouth, New Hampshire 03801, United States",43.079361,-70.762546,North End,03801
Quincy White,1,"Essex Avenue, Portsmouth, New Hampshire 03801, United States",43.062251,-70.7777175,Portsmouth Plains,03801
Bob Baker,2,"366 Banfield Road, Portsmouth, New Hampshire 03801, United States",43.043438,-70.78903,Elwyn Park,03801
George Reed,1,"Andrew Jarvis Drive, Portsmouth, New Hampshire 03801, United States",43.058417,-70.767733,Wibird Area,03801
Hannah Turner,1,"Mirona Road, Portsmouth, New Hampshire 03801, United States",43.048331,-70.7748934606681,Elwyn Park,03801
Tina Lee,4,"Vaughan Street, Portsmouth, New Hampshire 03801, United States",43.0796866666667,-70.762436,North End,03801
Paula Brown,0,"Holly Lane, Portsmouth, New Hampshire 03801, United States",43.064779,-70.803209,Coakley Road,03801
Alice Clark,3,"Summit Avenue, Portsmouth, New Hampshire 03801, United States",43.0613915,-70.765841,Wibird Area,03801
Julia Turner,3,"Osprey Drive, Portsmouth, New Hampshire 03801, United States",43.0887205,-70.782789,Frank Jones Farm,03801
Ethan Miller,0,"30 Austin Lane, Portsmouth, NH 03801",43.063561,-70.80535,Coakley Road,03801
George Clark,3,"316 McKinley Road, Portsmouth, NH 03801",43.040879,-70.765197,Elwyn Park,03801
Kevin Turner,3,"Essex Avenue, Portsmouth, New Hampshire 03801, United States",43.062251,-70.7777175,Portsmouth Plains,03801
Julia Hill,2,"993 Colonial Drive, Portsmouth, New Hampshire 03801, United States",43.063549,-70.802323,Coakley Road,03801
Paula Hill,1,"188 FW Hartford Drive, Portsmouth, NH 03801",43.031491,-70.774286,Elwyn Park,03801
Nancy Green,1,"422 Sheffield Road, Manchester, New Hampshire 03103, United States",42.941861,-71.418037,Crystal Lake,03103
Daisy Reed,2,"Harding Road, Portsmouth, New Hampshire 03801, United States",43.0414885,-70.763811,Elwyn Park,03801
Alice Hill,1,"Andrew Jarvis Drive, Portsmouth, New Hampshire 03801, United States",43.058417,-70.767733,Wibird Area,03801
Kevin Turner,4,"92 Marcy Street, Portsmouth, New Hampshire 03801, United States",43.076786,-70.752519,Downtown,03801
Fiona Davis,2,"Parrott Avenue, Portsmouth, New Hampshire 03801, United States",43.07321925,-70.75892875,Richards Avenue Area,03801
George Garcia,0,"51 Colonial Drive, Portsmouth, New Hampshire 03801, United States",43.062353,-70.801368,Coakley Road,03801
Ethan Davis,0,"767 Peverly Hill Road, Portsmouth, New Hampshire 03801, United States",43.046597,-70.775017,Elwyn Park,03801
Bob Lee,1,"Parrott Avenue, Portsmouth, New Hampshire 03801, United States",43.07321925,-70.75892875,Richards Avenue Area,03801
Daisy Johnson,3,"Holly Lane, Portsmouth, New Hampshire 03801, United States",43.064779,-70.803209,Coakley Road,03801
Paula Reed,4,"334 Sherburne Road, Portsmouth, New Hampshire 03801, United States",43.062705,-70.803113,Coakley Road,03801
Fiona Allen,1,"493 Elwyn Road, Portsmouth, New Hampshire 03801, United States",43.045529,-70.752029,Sagamore Grove,03801
Daisy Miller,4,"Andrew Jarvis Drive, Portsmouth, New Hampshire 03801, United States",43.058417,-70.767733,Wibird Area,03801
Oliver Davis,0,"328 Beachstone Drive, Portsmouth, NH 03801",43.02545,-70.785701,Maplehaven,03801
Oliver Reed,0,"591 Junkins Avenue, Portsmouth, NH 03801",43.0616625,-70.767006609375,Wibird Area,03801
Sam Turner,2,"98 Marcy Street, Portsmouth, New Hampshire 03801, United States",43.076786,-70.752519,Downtown,03801
Lily Green,4,"994 Odiorne Point Road, Portsmouth, New Hampshire 03801, United States",43.048867,-70.755805,Sagamore Grove,03801
Sam Brown,4,"602 Maple Haven, Portsmouth, NH 03801",43.075964,-70.757099,Downtown,03801
Kevin Harris,4,"941 Austin Lane, Portsmouth, NH 03801",43.075964,-70.757099,Downtown,03801
Tina Johnson,3,"533 Colonial Drive, Portsmouth, New Hampshire 03801, United States",43.064611,-70.800948,Coakley Road,03801
Bob Miller,5,"536 Banfield Road, Portsmouth, New Hampshire 03801, United States",43.040634,-70.793181,Maplehaven,03801
Rachel Clark,2,"78 Holly Lane, Portsmouth, New Hampshire 03801, United States",43.064322,-70.803349,Coakley Road,03801
Charlie Johnson,3,"315 New Castle Avenue, Portsmouth, New Hampshire 03801, United States",43.070679,-70.745602,Little Harbor,03801
Daisy White,3,"251 Buckminster Way, Portsmouth, New Hampshire 03801, United States",43.039115,-70.811358,Maplehaven,03801
Rachel Garcia,1,"333 Maple Haven, Portsmouth, NH 03801",43.075964,-70.757099,Downtown,03801
Nancy Kim,4,"403 New Castle Avenue, Portsmouth, New Hampshire 03801, United States",43.070854,-70.744184,Little Harbor,03801
Tina Baker,0,"224 Holly Lane, Portsmouth, New Hampshire 03801, United States",43.064985,-70.803781,Coakley Road,03801
Fiona Harris,1,"Summit Avenue, Portsmouth, New Hampshire 03801, United States",43.0613915,-70.765841,Wibird Area,03801
Hannah Hill,3,"729 Beachstone Drive, Portsmouth, NH 03801",43.02545,-70.785701,Maplehaven,03801
Kevin Miller,1,"Osprey Drive, Portsmouth, New Hampshire 03801, United States",43.0887205,-70.782789,Frank Jones Farm,03801
Fiona Allen,2,"Gosport Road, Portsmouth, New Hampshire 03801, United States",43.0478515,-70.7548105,Sagamore Grove,03801
Quincy Clark,5,"Blue Heron Drive, Portsmouth, New Hampshire 03801, United States",43.08762,-70.778978,Atlantic Heights,03801
Sam Johnson,4,"350 Colonial Drive, Portsmouth, New Hampshire 03801, United States",43.06267,-70.80214,Coakley Road,03801
Isaac Davis,5,"898 Austin Lane, Portsmouth, NH 03801",43.075964,-70.757099,Downtown,03801
Bob Hill,2,"Osprey Drive, Portsmouth, New Hampshire 03801, United States",43.0887205,-70.782789,Frank Jones Farm,03801
Daisy Wilson,0,"997 Peverly Hill Road, Portsmouth, New Hampshire 03801, United States",43.046402,-70.774716,Elwyn Park,03801
Isaac Garcia,2,"167 Sagamore Avenue, Portsmouth, New Hampshire 03801, United States",43.063938,-70.756758,Broad Street,03801
Isaac Brown,2,"Osprey Drive, Portsmouth, New Hampshire 03801, United States",43.0887205,-70.782789,Frank Jones Farm,03801
Tina White,0,"Holly Lane, Portsmouth, New Hampshire 03801, United States",43.064779,-70.803209,Coakley Road,03801
Alice Turner,5,"923 State Street, Portsmouth, New Hampshire 03801, United States",43.077241,-70.754122,Downtown,03801
Kevin Scott,0,"Andrew Jarvis Drive, Portsmouth, New Hampshire 03801, United States",43.058417,-70.767733,Wibird Area,03801
Sam Smith,5,"Harding Road, Portsmouth, New Hampshire 03801, United States",43.0414885,-70.763811,Elwyn Park,03801
Nancy Hill,0,"53 South Mill Street, Portsmouth, New Hampshire 03801, United States",43.073152,-70.749844,South End,03801
George Allen,1,"Andrew Jarvis Drive, Portsmouth, New Hampshire 03801, United States",43.058417,-70.767733,Wibird Area,03801
Ethan Garcia,1,"611 State Street, Portsmouth, New Hampshire 03801, United States",43.077247,-70.754108,Downtown,03801
Michael Smith,5,"948 Banfield Road, Portsmouth, New Hampshire 03801, United States",43.036588,-70.801793,Maplehaven,03801
Sam Davis,0,"682 New Castle Avenue, Portsmouth, New Hampshire 03801, United States",43.070696,-70.739325,Little Harbor,03801
Ethan Clark,3,"Summit Avenue, Portsmouth, New Hampshire 03801, United States",43.0613915,-70.765841,Wibird Area,03801
Fiona Kim,2,"Harding Road, Portsmouth, New Hampshire 03801, United States",43.0414885,-70.763811,Elwyn Park,03801
Charlie Kim,3,"389 FW Hartford Drive, Portsmouth, NH 03801",43.031168,-70.769125,Elwyn Park,03801
Lily Kim,3,"179 South Mill Street, Portsmouth, New Hampshire 03801, United States",43.073162,-70.749732,South End,03801
Paula Scott,1,"545 Market Street, Portsmouth, New Hampshire 03801, United States",43.083496,-70.764529,Nobles Island,03801
George Johnson,2,"602 State Street, Portsmouth, New Hampshire 03801, United States",43.077171,-70.754287,Downtown,03801
Rachel Kim,0,"Harding Road, Portsmouth, New Hampshire 03801, United States",43.0414885,-70.763811,Elwyn Park,03801
Nancy Turner,5,"625 Sherburne Road, Portsmouth, New Hampshire 03801, United States",43.065543,-70.80594,Coakley Road,03801
Tina Kim,3,"Blue Heron Drive, Portsmouth, New Hampshire 03801, United States",43.08762,-70.778978,Atlantic Heights,03801
Alice Allen,2,"391 Echo Avenue, Portsmouth, New Hampshire 03801, United States",43.082884,-70.791176,Frank Jones Farm,03801
Ethan Turner,1,"Buckminster Way, Portsmouth, New Hampshire 03801, United States",43.038578,-70.80973,Maplehaven,03801
Rachel Hill,5,"21 Harding Road, Portsmouth, New Hampshire 03801, United States",43.041698,-70.763608,Elwyn Park,03801
Julia Scott,3,"343 McKinley Road, Portsmouth, NH 03801",43.042239,-70.763216,Elwyn Park,03801
Ethan Wilson,3,"64 Greenleaf Avenue, Portsmouth, New Hampshire 03801, United States",43.059095,-70.77011,Lafayette Park,03801
Sam Harris,5,"835 State Street, Portsmouth, New Hampshire 03801, United States",43.077243,-70.754118,Downtown,03801
Daisy Wilson,4,"671 Elwyn Road, Portsmouth, New Hampshire 03801, United States",43.045497,-70.752787,Sagamore Grove,03801
Paula Smith,4,"Parrott Avenue, Portsmouth, New Hampshire 03801, United States",43.07321925,-70.75892875,Richards Avenue Area,03801
Charlie Brown,0,"341 McKinley Road, Portsmouth, NH 03801",43.042236,-70.763222,Elwyn Park,03801
Michael Brown,1,"449 Lafayette Road, Portsmouth, New Hampshire 03801, United States",43.058901,-70.76941,Lafayette Park,03801
Alice White,2,"Vaughan Street, Portsmouth, New Hampshire 03801, United States",43.0796866666667,-70.762436,North End,03801
Fiona Turner,1,"316 New Castle Avenue, Portsmouth, New Hampshire 03801, United States",43.070683,-70.745572,Little Harbor,03801
Oliver Baker,5,"603 Colonial Drive, Portsmouth, New Hampshire 03801, United States",43.063333,-70.802361,Coakley Road,03801
Nancy Baker,5,"491 Sagamore Avenue, Portsmouth, New Hampshire 03801, United States",43.060712,-70.7538,Broad Street,03801
Daisy Garcia,1,"996 Beachstone Drive, Portsmouth, NH 03801",43.02545,-70.785701,Maplehaven,03801
