name,gradeLevel,formattedAddress,latitude,longitude,neighbourhood,zipcode
Michael Brown,2,"830 High Street, Portsmouth, New Hampshire 03801, United States",43.079056,-70.75992,North End,03801
Michael Kim,2,"Fernald Court, Portsmouth, New Hampshire 03801, United States",43.069881,-70.7488905,Little Harbor,03801
Oliver Green,2,"Parker Street, Portsmouth, New Hampshire 03801, United States",43.0755905,-70.76288,Islington Creek,03801
Hannah Smith,4,"433 Islington Street, Portsmouth, New Hampshire 03801, United States",43.072457,-70.767977,Islington Creek,03801
Lily Scott,4,"Adams Avenue, Portsmouth, New Hampshire 03801, United States",43.037709,-70.7667475,Elwyn Park,03801
Isaac Green,0,"876 Middle Street, Portsmouth, New Hampshire 03801, United States",43.064597,-70.76728,Lafayette Park,03801
Julia Turner,2,"Granite Street, Portsmouth, New Hampshire 03801, United States",43.0855095,-70.7863505,Frank Jones Farm,03801
Isaac Hill,4,"345 Richards Avenue, Portsmouth, New Hampshire 03801, United States",43.068885,-70.75851,Richards Avenue Area,03801
Charlie Johnson,4,"Spinney Road, Portsmouth, New Hampshire 03801, United States",43.0645575,-70.77424,Lafayette Park,03801
Rachel Baker,2,"Lincoln Avenue, Portsmouth, New Hampshire 03801, United States",43.0679975,-70.7610185,Lincoln,03801
Daisy Wilson,2,"194 Echo Avenue, Portsmouth, New Hampshire 03801, United States",43.082727,-70.79035,Frank Jones Farm,03801
Hannah Hill,4,"Willard Avenue, Portsmouth, New Hampshire 03801, United States",43.0642175,-70.7653895,Wibird Area,03801
Fiona Scott,2,"Salter Street, Portsmouth, New Hampshire 03801, United States",43.0725,-70.74937,South End,03801
Oliver Scott,2,"Echo Avenue, Portsmouth, New Hampshire 03801, United States",43.0837015,-70.7889985,Frank Jones Farm,03801
Alice Harris,5,"Deer Street, Portsmouth, New Hampshire 03801, United States",43.078175,-70.760861,North End,03801
Tina Allen,4,"1293 Union Street, Manchester, New Hampshire 03104, United States",43.020028,-71.462273,North End,03104
Michael Adams,0,"Austin Street, Portsmouth, New Hampshire 03801, United States",43.07178,-70.76416,Goodwin Park,03801
Oliver Adams,5,"Gardner Street, Portsmouth, New Hampshire 03801, United States",43.074546,-70.7508,South End,03801
Tina Clark,4,"Rockland Street, Portsmouth, New Hampshire 03801, United States",43.069858,-70.759441,Richards Avenue Area,03801
Tina Clark,1,"Cass Street, Portsmouth, New Hampshire, United States",43.0701,-70.76919,Cass Street,03801
Alice Reed,5,"Brewster Street, Portsmouth, New Hampshire 03801, United States",43.07469,-70.7647515,Islington Creek,03801
Julia White,1,"Greenleaf Avenue, Portsmouth, New Hampshire 03801, United States",43.05608,-70.7740335681818,Portsmouth Plains,03801
Oliver Garcia,2,"Pinehurst Road, Portsmouth, New Hampshire 03801, United States",43.06348,-70.7591115,Broad Street,03801
Lily Smith,5,"Gardner Street, Portsmouth, New Hampshire 03801, United States",43.074546,-70.7508,South End,03801
Fiona Garcia,1,"Marcy Street, Portsmouth, New Hampshire 03801, United States",43.0737915,-70.751238,South End,03801
Isaac Turner,3,"Austin Street, Portsmouth, New Hampshire 03801, United States",43.07178,-70.76416,Goodwin Park,03801
Hannah Scott,0,"Pinehurst Road, Portsmouth, New Hampshire 03801, United States",43.06348,-70.7591115,Broad Street,03801
Lily Clark,4,"Marcy Street, Portsmouth, New Hampshire 03801, United States",43.0737915,-70.751238,South End,03801
Daisy Davis,0,"1014 Miller Avenue, Portsmouth, New Hampshire 03801, United States",43.066208,-70.758006,Lincoln,03801
Tina Baker,1,"Gardner Street, Portsmouth, New Hampshire 03801, United States",43.074546,-70.7508,South End,03801
Isaac Wilson,0,"Adams Avenue, Portsmouth, New Hampshire 03801, United States",43.037709,-70.7667475,Elwyn Park,03801
Nancy Allen,0,"29 Miller Avenue, Portsmouth, New Hampshire 03801, United States",43.07106,-70.76164,Lincoln,03801
Lily Green,2,"77 Peverly Hill Road, Portsmouth, New Hampshire 03801, United States",43.055502,-70.780595,Portsmouth Plains,03801
George Turner,2,"Whipple Street, Portsmouth, New Hampshire 03801, United States",43.0752045,-70.7757859,Christian Shore,03801
Kevin Miller,2,"Parker Street, Portsmouth, New Hampshire 03801, United States",43.0755905,-70.76288,Islington Creek,03801
Paula Allen,2,"Lincoln Avenue, Portsmouth, New Hampshire 03801, United States",43.0679975,-70.7610185,Lincoln,03801
George Wilson,3,"Hancock Street, Portsmouth, New Hampshire 03801, United States",43.07497,-70.7528205,South End,03801
Lily Turner,4,"219 Richards Avenue, Portsmouth, New Hampshire 03801, United States",43.071155,-70.760125,Richards Avenue Area,03801
Hannah Hill,5,"227 Cabot Street, Portsmouth, New Hampshire 03801, United States",43.073077,-70.766493,Islington Creek,03801
Quincy Scott,2,"Rockland Street, Portsmouth, New Hampshire 03801, United States",43.069858,-70.759441,Richards Avenue Area,03801
Rachel Allen,2,"Kane Street, Portsmouth, New Hampshire 03801, United States",43.0784705,-70.7714085,Christian Shore,03801
Daisy Johnson,4,"413 Austin Street, Portsmouth, New Hampshire 03801, United States",43.070501,-70.766219,Goodwin Park,03801
Michael Lee,2,"Langdon Street, Portsmouth, New Hampshire 03801, United States",43.074516,-70.7653624344262,Islington Creek,03801
Isaac Harris,2,"Cabot Street, Portsmouth, New Hampshire 03801, United States",43.072342,-70.7652100192308,Goodwin Park,03801
Hannah Miller,0,"Thornton Street, Portsmouth, New Hampshire 03801, United States",43.0753285,-70.77354,Christian Shore,03801
Sam Reed,1,"Brackett Lane, Portsmouth, New Hampshire 03801, United States",43.068337,-70.754319,Little Harbor,03801
Oliver Johnson,0,"679 Spinney Road, Portsmouth, New Hampshire 03801, United States",43.062958,-70.773207,Lafayette Park,03801
Alice Lee,5,"Salter Street, Portsmouth, New Hampshire 03801, United States",43.0725,-70.74937,South End,03801
Paula Clark,3,"Brewster Street, Portsmouth, New Hampshire 03801, United States",43.07469,-70.7647515,Islington Creek,03801
Nancy Clark,5,"358 Hanover Street, Manchester, New Hampshire 03104, United States",42.990939,-71.451809,Corey Square,03104
Nancy Green,4,"Leslie Drive, Portsmouth, New Hampshire 03801, United States",43.0825105,-70.7696875,Cutts Cove,03801
Alice Baker,2,"Parker Street, Portsmouth, New Hampshire 03801, United States",43.0755905,-70.76288,Islington Creek,03801
Paula Baker,2,"Pinehurst Road, Portsmouth, New Hampshire 03801, United States",43.06348,-70.7591115,Broad Street,03801
Michael Johnson,5,"Congress Street, Portsmouth, New Hampshire 03801, United States",43.076422,-70.759307,Downtown,03801
Oliver Adams,4,"971 Hanover Street, Manchester, New Hampshire 03104, United States",42.987432,-71.423475,Eaton Heights,03104
Kevin Harris,3,"Daniel Street, Portsmouth, New Hampshire 03801, United States",43.077515,-70.7554332816901,Downtown,03801
Kevin Adams,4,"Cabot Street, Portsmouth, New Hampshire 03801, United States",43.072342,-70.7652100192308,Goodwin Park,03801
Bob Davis,3,"Whipple Street, Portsmouth, New Hampshire 03801, United States",43.0752045,-70.7757859,Christian Shore,03801
Fiona Turner,3,"New Castle Avenue, Portsmouth, New Hampshire 03801, United States",43.070468,-70.745669,Little Harbor,03801
Bob Wilson,3,"539 Wibird Street, Portsmouth, New Hampshire 03801, United States",43.064242,-70.762647,Wibird Area,03801
Julia Hill,0,"Hancock Street, Portsmouth, New Hampshire 03801, United States",43.07497,-70.7528205,South End,03801
Hannah Adams,2,"Rockland Street, Portsmouth, New Hampshire 03801, United States",43.069858,-70.759441,Richards Avenue Area,03801
Paula Hill,1,"78 Spinney Road, Portsmouth, New Hampshire 03801, United States",43.066191,-70.77471,Lafayette Park,03801
Hannah Miller,2,"883 Granite Street, Manchester, New Hampshire 03102, United States",42.982902,-71.480013,Piscataquog,03102
George Wilson,0,"Pinehurst Road, Portsmouth, New Hampshire 03801, United States",43.06348,-70.7591115,Broad Street,03801
George Harris,4,"882 Hanover Street, Portsmouth, New Hampshire 03801, United States",43.07483,-70.76457,Islington Creek,03801
Hannah Brown,4,"Salter Street, Portsmouth, New Hampshire 03801, United States",43.0725,-70.74937,South End,03801
Tina Allen,2,"Pinehurst Road, Portsmouth, New Hampshire 03801, United States",43.06348,-70.7591115,Broad Street,03801
Paula Kim,3,"1707 Hanover Street, Manchester, New Hampshire 03104, United States",42.989832,-71.407034,Youngsville,03104
George Harris,2,"Bartlett Street, Portsmouth, New Hampshire 03801, United States",43.073191,-70.774605,Christian Shore,03801
Nancy White,5,"Freedom Circle, Portsmouth, New Hampshire 03801, United States",43.03016,-70.79462,Maplehaven,03801
Quincy Turner,4,"Farm Lane, Portsmouth, New Hampshire 03801, United States",43.078808,-70.785036,Frank Jones Farm,03801
Oliver Johnson,2,"Middle Road, Portsmouth, New Hampshire 03801, United States",43.060628,-70.776629,Portsmouth Plains,03801
Paula Clark,4,"Hancock Street, Portsmouth, New Hampshire 03801, United States",43.07497,-70.7528205,South End,03801
Tina Kim,4,"179 Peverly Hill Road, Portsmouth, New Hampshire 03801, United States",43.055841,-70.780881,Portsmouth Plains,03801
Kevin Allen,0,"Madison Street, Portsmouth, New Hampshire 03801, United States",43.07045,-70.765807,Goodwin Park,03801
Hannah Kim,0,"227 Lincoln Avenue, Portsmouth, New Hampshire 03801, United States",43.069019,-70.758588,Richards Avenue Area,03801
Oliver Miller,2,"1073 Granite Street, Manchester, New Hampshire 03102, United States",42.982858,-71.480043,Piscataquog,03102
Sam Kim,5,"Pinehurst Road, Portsmouth, New Hampshire 03801, United States",43.06348,-70.7591115,Broad Street,03801
Ethan Brown,5,"Austin Street, Portsmouth, New Hampshire 03801, United States",43.07178,-70.76416,Goodwin Park,03801
Paula Johnson,5,"Richards Avenue, Portsmouth, New Hampshire 03801, United States",43.0698125,-70.7593955,Richards Avenue Area,03801
Ethan White,4,"1033 Ledgewood Road, Manchester, New Hampshire 03104, United States",43.018992,-71.455474,North End,03104
Tina Baker,0,"Freedom Circle, Portsmouth, New Hampshire 03801, United States",43.03016,-70.79462,Maplehaven,03801
Daisy Adams,5,"386 High Street, Portsmouth, New Hampshire 03801, United States",43.079004,-70.759858,Downtown,03801
Charlie Hill,3,"Adams Avenue, Portsmouth, New Hampshire 03801, United States",43.037709,-70.7667475,Elwyn Park,03801
Hannah Allen,1,"Farm Lane, Portsmouth, New Hampshire 03801, United States",43.078808,-70.785036,Frank Jones Farm,03801
Julia Kim,0,"Marcy Street, Portsmouth, New Hampshire 03801, United States",43.0737915,-70.751238,South End,03801
Oliver Davis,2,"199 Spinney Road, Portsmouth, New Hampshire 03801, United States",43.064527,-70.77479,Lafayette Park,03801
Lily Harris,5,"Salter Street, Portsmouth, New Hampshire 03801, United States",43.0725,-70.74937,South End,03801
Daisy Reed,2,"Salter Street, Portsmouth, New Hampshire 03801, United States",43.0725,-70.74937,South End,03801
Tina Brown,0,"Lincoln Avenue, Portsmouth, New Hampshire 03801, United States",43.0679975,-70.7610185,Lincoln,03801
Charlie Green,1,"South Street, Portsmouth, New Hampshire 03801, United States",43.0658175,-70.7597385,Lincoln,03801
George Scott,1,"Farm Lane, Portsmouth, New Hampshire 03801, United States",43.078808,-70.785036,Frank Jones Farm,03801
Paula Green,1,"Gardner Street, Portsmouth, New Hampshire 03801, United States",43.074546,-70.7508,South End,03801
Oliver Clark,0,"Gates Street, Portsmouth, New Hampshire 03801, United States",43.07483,-70.751949,South End,03801
Ethan Baker,2,"Cabot Street, Portsmouth, New Hampshire 03801, United States",43.072342,-70.7652100192308,Goodwin Park,03801
Daisy Smith,5,"Whipple Street, Portsmouth, New Hampshire 03801, United States",43.0752045,-70.7757859,Christian Shore,03801
Kevin Lee,2,"Cass Street, Portsmouth, New Hampshire, United States",43.0701,-70.76919,Cass Street,03801
Daisy Kim,5,"1049 Thornton Street, Portsmouth, New Hampshire 03801, United States",43.073214,-70.776544,Christian Shore,03801
Lily Reed,2,"357 Peverly Hill Road, Portsmouth, New Hampshire 03801, United States",43.053588,-70.779308,Portsmouth Plains,03801
Kevin Baker,0,"177 Leslie Drive, Portsmouth, New Hampshire 03801, United States",43.082911,-70.769493,Cutts Cove,03801
Lily Brown,1,"Market Street, Portsmouth, New Hampshire 03801, United States",43.0822131818182,-70.7626760909091,Nobles Island,03801
Hannah Wilson,4,"536 Maplewood Avenue, Portsmouth, New Hampshire 03801, United States",43.0809,-70.772106,Cutts Cove,03801
Rachel Johnson,4,"893 Greenleaf Avenue, Portsmouth, New Hampshire 03801, United States",43.053343,-70.778801,Portsmouth Plains,03801
Kevin Reed,2,"Hancock Street, Portsmouth, New Hampshire 03801, United States",43.07497,-70.7528205,South End,03801
Daisy Lee,5,"120 Miller Avenue, Portsmouth, New Hampshire 03801, United States",43.069919,-70.760467,Lincoln,03801
Sam Lee,3,"Willard Avenue, Portsmouth, New Hampshire 03801, United States",43.0642175,-70.7653895,Wibird Area,03801
Bob Baker,0,"Aldrich Road, Portsmouth, New Hampshire 03801, United States",43.067279,-70.770189,Lafayette Park,03801
Alice Lee,0,"347 Lincoln Avenue, Portsmouth, New Hampshire 03801, United States",43.068017,-70.76049,Lincoln,03801
Isaac Wilson,5,"705 Maplewood Avenue, Portsmouth, New Hampshire 03801, United States",43.080962,-70.772939,Cutts Cove,03801
Fiona Allen,5,"Rockland Street, Portsmouth, New Hampshire 03801, United States",43.069858,-70.759441,Richards Avenue Area,03801
Fiona Allen,1,"Kearsarge Way, Portsmouth, New Hampshire 03801, United States",43.08814,-70.7740905,Atlantic Heights,03801
Sam Johnson,5,"Willard Avenue, Portsmouth, New Hampshire 03801, United States",43.0642175,-70.7653895,Wibird Area,03801
Oliver Lee,3,"Salter Street, Portsmouth, New Hampshire 03801, United States",43.0725,-70.74937,South End,03801
Tina Hill,3,"Kearsarge Way, Portsmouth, New Hampshire 03801, United States",43.08814,-70.7740905,Atlantic Heights,03801
Michael White,4,"Lincoln Avenue, Portsmouth, New Hampshire 03801, United States",43.0679975,-70.7610185,Lincoln,03801
Isaac White,3,"618 Pearl Street, Manchester, New Hampshire 03104, United States",42.997454,-71.445156,Straw,03104
Oliver Garcia,3,"Gardner Street, Portsmouth, New Hampshire 03801, United States",43.074546,-70.7508,South End,03801
George Allen,4,"Congress Street, Portsmouth, New Hampshire 03801, United States",43.076422,-70.759307,Downtown,03801
Rachel Kim,5,"188 Bartlett Street, Portsmouth, New Hampshire 03801, United States",43.07227,-70.77367,Christian Shore,03801
Nancy Wilson,4,"Fernald Court, Portsmouth, New Hampshire 03801, United States",43.069881,-70.7488905,Little Harbor,03801
Charlie Kim,3,"Freedom Circle, Portsmouth, New Hampshire 03801, United States",43.03016,-70.79462,Maplehaven,03801
Nancy Baker,4,"Willard Avenue, Portsmouth, New Hampshire 03801, United States",43.0642175,-70.7653895,Wibird Area,03801
Alice Harris,5,"Langdon Street, Portsmouth, New Hampshire 03801, United States",43.074516,-70.7653624344262,Islington Creek,03801
Daisy Hill,1,"Wibird Street, Portsmouth, New Hampshire 03801, United States",43.0666105,-70.763359,Wibird Area,03801
Paula Adams,4,"1013 Greenleaf Avenue, Portsmouth, New Hampshire 03801, United States",43.053325,-70.778835,Portsmouth Plains,03801
Julia Miller,2,"622 Spinney Road, Portsmouth, New Hampshire 03801, United States",43.062734,-70.773038,Lafayette Park,03801
Rachel Clark,4,"Langdon Street, Portsmouth, New Hampshire 03801, United States",43.074516,-70.7653624344262,Islington Creek,03801
Sam Johnson,4,"Pleasant Street, Portsmouth, New Hampshire 03801, United States",43.074555,-70.7545881818182,South End,03801
Paula Johnson,5,"High Street, Portsmouth, New Hampshire 03801, United States",43.078309,-70.7588895,Downtown,03801
Tina Davis,4,"Wibird Street, Portsmouth, New Hampshire 03801, United States",43.0666105,-70.763359,Wibird Area,03801
Bob Allen,2,"Parker Street, Portsmouth, New Hampshire 03801, United States",43.0755905,-70.76288,Islington Creek,03801
Hannah Davis,3,"Parker Street, Portsmouth, New Hampshire 03801, United States",43.0755905,-70.76288,Islington Creek,03801
Kevin Johnson,2,"Mechanic Street, Portsmouth, New Hampshire 03801, United States",43.0747005,-70.750327,South End,03801
Julia Garcia,1,"162 Rockland Street, Portsmouth, New Hampshire 03801, United States",43.070121,-70.758677,Richards Avenue Area,03801
Lily Reed,5,"Echo Avenue, Portsmouth, New Hampshire 03801, United States",43.0837015,-70.7889985,Frank Jones Farm,03801
George Hill,3,"Fleet Street, Portsmouth, New Hampshire 03801, United States",43.0761325714286,-70.7589378571429,Downtown,03801
Julia White,5,"Greenleaf Avenue, Portsmouth, New Hampshire 03801, United States",43.05608,-70.7740335681818,Portsmouth Plains,03801
Kevin Green,1,"Willard Avenue, Portsmouth, New Hampshire 03801, United States",43.0642175,-70.7653895,Wibird Area,03801
Julia Hill,0,"1933 Union Street, Manchester, New Hampshire 03104, United States",43.033519,-71.462867,North End,03104
Nancy Harris,2,"Spinney Road, Portsmouth, New Hampshire 03801, United States",43.0645575,-70.77424,Lafayette Park,03801
Isaac Garcia,4,"Rockland Street, Portsmouth, New Hampshire 03801, United States",43.069858,-70.759441,Richards Avenue Area,03801
Nancy Garcia,2,"Austin Street, Portsmouth, New Hampshire 03801, United States",43.07178,-70.76416,Goodwin Park,03801
Michael Davis,2,"Madison Street, Portsmouth, New Hampshire 03801, United States",43.07045,-70.765807,Goodwin Park,03801
Julia Allen,4,"Whipple Street, Portsmouth, New Hampshire 03801, United States",43.0752045,-70.7757859,Christian Shore,03801
Ethan Johnson,2,"296 Peverly Hill Road, Portsmouth, New Hampshire 03801, United States",43.054111,-70.779067,Portsmouth Plains,03801
Oliver Reed,3,"Kane Street, Portsmouth, New Hampshire 03801, United States",43.0784705,-70.7714085,Christian Shore,03801
Bob Davis,5,"922 Leslie Drive, Portsmouth, New Hampshire 03801, United States",43.082407,-70.771524,Cutts Cove,03801
Rachel Hill,5,"Market Street, Portsmouth, New Hampshire 03801, United States",43.0822131818182,-70.7626760909091,Nobles Island,03801
Oliver Reed,4,"Mckinley Road, Portsmouth, New Hampshire 03801, United States",43.040078,-70.768478,Elwyn Park,03801
Nancy Turner,5,"Parker Street, Portsmouth, New Hampshire 03801, United States",43.0755905,-70.76288,Islington Creek,03801
Kevin Adams,1,"90 Hanover Street, Portsmouth, New Hampshire 03801, United States",43.077544,-70.759866,North End,03801
Kevin Garcia,4,"205 Parrott Avenue, Portsmouth, New Hampshire 03801, United States",43.071201,-70.760157,Richards Avenue Area,03801
Tina Clark,5,"1014 Marcy Street, Portsmouth, New Hampshire 03801, United States",43.070866,-70.749662,South End,03801
Tina Brown,4,"523 Leslie Drive, Portsmouth, New Hampshire 03801, United States",43.082397,-70.770895,Cutts Cove,03801
Charlie Green,1,"Brewster Street, Portsmouth, New Hampshire 03801, United States",43.07469,-70.7647515,Islington Creek,03801
Paula Wilson,0,"Cass Street, Portsmouth, New Hampshire, United States",43.0701,-70.76919,Cass Street,03801
Sam Kim,0,"Marcy Street, Portsmouth, New Hampshire 03801, United States",43.0737915,-70.751238,South End,03801
Sam Johnson,3,"Congress Street, Portsmouth, New Hampshire 03801, United States",43.076422,-70.759307,Downtown,03801
Hannah Harris,1,"Adams Avenue, Portsmouth, New Hampshire 03801, United States",43.037709,-70.7667475,Elwyn Park,03801
Isaac Davis,4,"Whipple Street, Portsmouth, New Hampshire 03801, United States",43.0752045,-70.7757859,Christian Shore,03801
Rachel Baker,5,"Kearsarge Way, Portsmouth, New Hampshire 03801, United States",43.08814,-70.7740905,Atlantic Heights,03801
Ethan Johnson,0,"Brackett Lane, Portsmouth, New Hampshire 03801, United States",43.068337,-70.754319,Little Harbor,03801
Charlie Hill,3,"Greenleaf Avenue, Portsmouth, New Hampshire 03801, United States",43.05608,-70.7740335681818,Portsmouth Plains,03801
Kevin Turner,2,"Market Street, Portsmouth, New Hampshire 03801, United States",43.0822131818182,-70.7626760909091,Nobles Island,03801
Bob Scott,3,"Farm Lane, Portsmouth, New Hampshire 03801, United States",43.078808,-70.785036,Frank Jones Farm,03801
Alice Adams,0,"745 Sagamore Avenue, Portsmouth, New Hampshire 03801, United States",43.056909,-70.751398,Sagamore Grove,03801
Hannah Scott,1,"Brackett Lane, Portsmouth, New Hampshire 03801, United States",43.068337,-70.754319,Little Harbor,03801
Daisy Smith,1,"Pleasant Street, Portsmouth, New Hampshire 03801, United States",43.074555,-70.7545881818182,South End,03801
Rachel Wilson,5,"Rockland Street, Portsmouth, New Hampshire 03801, United States",43.069858,-70.759441,Richards Avenue Area,03801
Fiona Allen,4,"311 Leslie Drive, Portsmouth, New Hampshire 03801, United States",43.082831,-70.76963,Cutts Cove,03801
Bob Adams,3,"Thornton Street, Portsmouth, New Hampshire 03801, United States",43.0753285,-70.77354,Christian Shore,03801
Bob Turner,2,"521 Pearl Street, Manchester, New Hampshire 03104, United States",42.997451,-71.445186,Straw,03104
Rachel Miller,0,"Pinehurst Road, Portsmouth, New Hampshire 03801, United States",43.06348,-70.7591115,Broad Street,03801
George Clark,4,"Lincoln Avenue, Portsmouth, New Hampshire 03801, United States",43.0679975,-70.7610185,Lincoln,03801
Bob Harris,3,"73 Pinehurst Road, Portsmouth, New Hampshire 03801, United States",43.064151,-70.759653,Broad Street,03801
Julia Reed,4,"557 Market Street, Portsmouth, New Hampshire 03801, United States",43.084241,-70.775574,Frank Jones Farm,03801
Isaac Lee,2,"210 New Castle Avenue, Portsmouth, New Hampshire 03801, United States",43.070275,-70.748533,Little Harbor,03801
Nancy Allen,0,"663 Hanover Street, Manchester, New Hampshire 03104, United States",42.989476,-71.436399,Hanover Hill,03104
Alice Turner,5,"Cass Street, Portsmouth, New Hampshire, United States",43.0701,-70.76919,Cass Street,03801
Daisy Smith,4,"Thornton Street, Portsmouth, New Hampshire 03801, United States",43.0753285,-70.77354,Christian Shore,03801
Quincy Allen,2,"884 Spinney Road, Portsmouth, New Hampshire 03801, United States",43.062614,-70.772949,Lafayette Park,03801
Quincy Reed,0,"Cass Street, Portsmouth, New Hampshire, United States",43.0701,-70.76919,Cass Street,03801
Isaac Allen,5,"Hancock Street, Portsmouth, New Hampshire 03801, United States",43.07497,-70.7528205,South End,03801
Tina Miller,3,"Kane Street, Portsmouth, New Hampshire 03801, United States",43.0784705,-70.7714085,Christian Shore,03801
Paula Kim,5,"Pinehurst Road, Portsmouth, New Hampshire 03801, United States",43.06348,-70.7591115,Broad Street,03801
Nancy Scott,3,"245 Parrott Avenue, Portsmouth, New Hampshire 03801, United States",43.071201,-70.760157,Richards Avenue Area,03801
Bob Garcia,4,"Willard Avenue, Portsmouth, New Hampshire 03801, United States",43.0642175,-70.7653895,Wibird Area,03801
Alice Clark,3,"Mckinley Road, Portsmouth, New Hampshire 03801, United States",43.040078,-70.768478,Elwyn Park,03801
Oliver Baker,4,"Gardner Street, Portsmouth, New Hampshire 03801, United States",43.074546,-70.7508,South End,03801
Quincy Miller,3,"763 Marcy Street, Portsmouth, New Hampshire 03801, United States",43.07085,-70.749654,South End,03801
George Green,3,"Freedom Circle, Portsmouth, New Hampshire 03801, United States",43.03016,-70.79462,Maplehaven,03801
Ethan Harris,3,"Willard Avenue, Portsmouth, New Hampshire 03801, United States",43.0642175,-70.7653895,Wibird Area,03801
George Smith,0,"Gates Street, Portsmouth, New Hampshire 03801, United States",43.07483,-70.751949,South End,03801
George Green,5,"Mechanic Street, Portsmouth, New Hampshire 03801, United States",43.0747005,-70.750327,South End,03801
Daisy Wilson,1,"Mechanic Street, Portsmouth, New Hampshire 03801, United States",43.0747005,-70.750327,South End,03801
Paula Allen,4,"1503 Maplewood Avenue, Portsmouth, New Hampshire 03801, United States",43.082732,-70.784532,Frank Jones Farm,03801
Daisy Kim,2,"Echo Avenue, Portsmouth, New Hampshire 03801, United States",43.0837015,-70.7889985,Frank Jones Farm,03801
Rachel White,3,"Salter Street, Portsmouth, New Hampshire 03801, United States",43.0725,-70.74937,South End,03801
Julia Smith,5,"Gardner Street, Portsmouth, New Hampshire 03801, United States",43.074546,-70.7508,South End,03801
Kevin Johnson,1,"Parker Street, Portsmouth, New Hampshire 03801, United States",43.0755905,-70.76288,Islington Creek,03801
Oliver Davis,1,"263 Lincoln Avenue, Portsmouth, New Hampshire 03801, United States",43.068675,-70.759177,Lincoln,03801
Alice Clark,4,"Salter Street, Portsmouth, New Hampshire 03801, United States",43.0725,-70.74937,South End,03801
Kevin Baker,4,"Brewster Street, Portsmouth, New Hampshire 03801, United States",43.07469,-70.7647515,Islington Creek,03801
Nancy Johnson,2,"Austin Street, Portsmouth, New Hampshire 03801, United States",43.07178,-70.76416,Goodwin Park,03801
Julia Lee,5,"264 Mechanic Street, Portsmouth, New Hampshire 03801, United States",43.074015,-70.749629,South End,03801
Julia Brown,3,"Wibird Street, Portsmouth, New Hampshire 03801, United States",43.0666105,-70.763359,Wibird Area,03801
Lily Hill,2,"Cass Street, Portsmouth, New Hampshire 03801, United States",43.070257,-70.7675665,Cass Street,03801
Julia Johnson,1,"Salter Street, Portsmouth, New Hampshire 03801, United States",43.0725,-70.74937,South End,03801
Tina Allen,4,"771 Middle Street, Portsmouth, New Hampshire 03801, United States",43.06728,-70.766961,Wibird Area,03801
Lily Lee,0,"50 Court Street, Portsmouth, New Hampshire 03801, United States",43.074342,-70.75992,Downtown,03801
Ethan Wilson,1,"Cabot Street, Portsmouth, New Hampshire 03801, United States",43.072342,-70.7652100192308,Goodwin Park,03801
Hannah Adams,1,"Parker Street, Portsmouth, New Hampshire 03801, United States",43.0755905,-70.76288,Islington Creek,03801
Oliver Smith,2,"Brackett Lane, Portsmouth, New Hampshire 03801, United States",43.068337,-70.754319,Little Harbor,03801
Lily Harris,0,"Echo Avenue, Portsmouth, New Hampshire 03801, United States",43.0837015,-70.7889985,Frank Jones Farm,03801
Kevin Clark,0,"Leslie Drive, Portsmouth, New Hampshire 03801, United States",43.0825105,-70.7696875,Cutts Cove,03801
Kevin Miller,0,"1377 Union Street, Manchester, New Hampshire 03104, United States",43.023029,-71.462387,North End,03104
Daisy Scott,4,"721 Spinney Road, Portsmouth, New Hampshire 03801, United States",43.062946,-70.773197,Lafayette Park,03801
Charlie Allen,2,"Wibird Street, Portsmouth, New Hampshire 03801, United States",43.0666105,-70.763359,Wibird Area,03801
Bob Johnson,4,"902 Sagamore Avenue, Portsmouth, New Hampshire 03801, United States",43.056346,-70.750698,Sagamore Grove,03801
Hannah Clark,4,"Whipple Street, Portsmouth, New Hampshire 03801, United States",43.0752045,-70.7757859,Christian Shore,03801
Charlie Lee,5,"Congress Street, Portsmouth, New Hampshire 03801, United States",43.076422,-70.759307,Downtown,03801
Quincy Turner,3,"Echo Avenue, Portsmouth, New Hampshire 03801, United States",43.0837015,-70.7889985,Frank Jones Farm,03801
Fiona Allen,4,"Leslie Drive, Portsmouth, New Hampshire 03801, United States",43.0825105,-70.7696875,Cutts Cove,03801
Sam Kim,2,"Gardner Street, Portsmouth, New Hampshire 03801, United States",43.074546,-70.7508,South End,03801
Bob Davis,5,"606 Peverly Hill Road, Portsmouth, New Hampshire 03801, United States",43.053133,-70.779038,Portsmouth Plains,03801
Bob Scott,5,"Pinehurst Road, Portsmouth, New Hampshire 03801, United States",43.06348,-70.7591115,Broad Street,03801
Paula Baker,4,"Austin Street, Portsmouth, New Hampshire 03801, United States",43.07178,-70.76416,Goodwin Park,03801
Sam Davis,3,"355 Miller Avenue, Portsmouth, New Hampshire 03801, United States",43.066869,-70.758419,Lincoln,03801
Oliver Smith,5,"Freedom Circle, Portsmouth, New Hampshire 03801, United States",43.03016,-70.79462,Maplehaven,03801
Michael Kim,2,"Congress Street, Portsmouth, New Hampshire 03801, United States",43.076422,-70.759307,Downtown,03801
Ethan Adams,2,"350 Willard Avenue, Portsmouth, New Hampshire 03801, United States",43.063181,-70.767829,Wibird Area,03801
Bob Lee,4,"1060 Ledgewood Road, Manchester, New Hampshire 03104, United States",43.018992,-71.455474,North End,03104
Ethan Adams,1,"942 Maplewood Avenue, Portsmouth, New Hampshire 03801, United States",43.081614,-70.778675,Frank Jones Farm,03801
Nancy Clark,3,"Austin Street, Portsmouth, New Hampshire 03801, United States",43.07178,-70.76416,Goodwin Park,03801
Bob Adams,0,"1009 Ledgewood Road, Manchester, New Hampshire 03104, United States",43.018992,-71.455474,North End,03104
Lily White,0,"Chestnut Street, Portsmouth, New Hampshire 03801, United States",43.0757385,-70.759677,Downtown,03801
Nancy Kim,3,"1281 Sagamore Avenue, Portsmouth, New Hampshire 03801, United States",43.051564,-70.747861,Sagamore Grove,03801
Quincy Johnson,1,"278 State Street, Portsmouth, New Hampshire 03801, United States",43.075662,-70.757331,Downtown,03801
Charlie Turner,2,"763 Kearsarge Way, Portsmouth, New Hampshire 03801, United States",43.092002,-70.771357,Atlantic Heights,03801
Hannah Brown,3,"623 Ledgewood Road, Manchester, New Hampshire 03104, United States",43.019213,-71.455521,North End,03104
Julia Lee,0,"Adams Avenue, Portsmouth, New Hampshire 03801, United States",43.037709,-70.7667475,Elwyn Park,03801
Quincy Turner,4,"Mechanic Street, Portsmouth, New Hampshire 03801, United States",43.0747005,-70.750327,South End,03801
Nancy Clark,1,"Broad Street, Portsmouth, New Hampshire, United States",43.06312,-70.75622,Broad Street,03801
Isaac Scott,5,"Mckinley Road, Portsmouth, New Hampshire 03801, United States",43.040078,-70.768478,Elwyn Park,03801
Ethan Hill,0,"Leslie Drive, Portsmouth, New Hampshire 03801, United States",43.0825105,-70.7696875,Cutts Cove,03801
Michael Scott,3,"944 Middle Street, Portsmouth, New Hampshire 03801, United States",43.064629,-70.767263,Lafayette Park,03801
Daisy Adams,2,"392 Russell Street, Manchester, New Hampshire 03104, United States",43.007566,-71.452983,Straw,03104
Michael Clark,1,"Austin Street, Portsmouth, New Hampshire 03801, United States",43.07178,-70.76416,Goodwin Park,03801
Rachel Brown,5,"989 Richards Avenue, Portsmouth, New Hampshire 03801, United States",43.066771,-70.757026,Richards Avenue Area,03801
Hannah Hill,2,"Whipple Street, Portsmouth, New Hampshire 03801, United States",43.0752045,-70.7757859,Christian Shore,03801
Lily Kim,3,"278 Richards Avenue, Portsmouth, New Hampshire 03801, United States",43.069933,-70.75926,Richards Avenue Area,03801
Quincy Wilson,5,"Daniel Street, Portsmouth, New Hampshire 03801, United States",43.077515,-70.7554332816901,Downtown,03801
Tina White,3,"Rockland Street, Portsmouth, New Hampshire 03801, United States",43.069858,-70.759441,Richards Avenue Area,03801
Isaac Turner,0,"679 Bartlett Street, Manchester, New Hampshire 03102, United States",42.993432,-71.482011,Notre Dame,03102
Hannah Brown,4,"237 Cass Street, Portsmouth, New Hampshire 03801, United States",43.069344,-70.766712,Cass Street,03801
Charlie Miller,4,"895 Richards Avenue, Portsmouth, New Hampshire 03801, United States",43.066873,-70.757093,Richards Avenue Area,03801
Quincy Harris,0,"Farm Lane, Portsmouth, New Hampshire 03801, United States",43.078808,-70.785036,Frank Jones Farm,03801
Isaac Hill,5,"Marcy Street, Portsmouth, New Hampshire 03801, United States",43.0737915,-70.751238,South End,03801
Isaac Scott,2,"39 South Street, Portsmouth, New Hampshire 03801, United States",43.072343,-70.750584,South End,03801
Oliver Lee,1,"Mckinley Road, Portsmouth, New Hampshire 03801, United States",43.040078,-70.768478,Elwyn Park,03801
Michael Turner,2,"892 Granite Street, Manchester, New Hampshire 03102, United States",42.982897,-71.480016,Piscataquog,03102
Michael Hill,0,"287 Sagamore Avenue, Portsmouth, New Hampshire 03801, United States",43.062957,-70.756076,Broad Street,03801
Kevin Wilson,3,"91 Cabot Street, Portsmouth, New Hampshire 03801, United States",43.07158,-70.764578,Goodwin Park,03801
Lily Kim,1,"Mckinley Road, Portsmouth, New Hampshire 03801, United States",43.040078,-70.768478,Elwyn Park,03801
Alice Garcia,0,"91 Echo Avenue, Portsmouth, New Hampshire 03801, United States",43.083968,-70.788419,Frank Jones Farm,03801
Julia Lee,3,"Farm Lane, Portsmouth, New Hampshire 03801, United States",43.078808,-70.785036,Frank Jones Farm,03801
Kevin Miller,4,"Parker Street, Portsmouth, New Hampshire 03801, United States",43.0755905,-70.76288,Islington Creek,03801
Alice Allen,5,"Parker Street, Portsmouth, New Hampshire 03801, United States",43.0755905,-70.76288,Islington Creek,03801
Daisy Lee,5,"151 Pinehurst Road, Portsmouth, New Hampshire 03801, United States",43.062717,-70.759279,Broad Street,03801
Daisy Smith,5,"Langdon Street, Portsmouth, New Hampshire 03801, United States",43.074516,-70.7653624344262,Islington Creek,03801
Fiona Reed,3,"Freedom Circle, Portsmouth, New Hampshire 03801, United States",43.03016,-70.79462,Maplehaven,03801
Sam Miller,3,"Freedom Circle, Portsmouth, New Hampshire 03801, United States",43.03016,-70.79462,Maplehaven,03801
Rachel Allen,4,"Rockland Street, Portsmouth, New Hampshire 03801, United States",43.069858,-70.759441,Richards Avenue Area,03801
Hannah Lee,0,"Wibird Street, Portsmouth, New Hampshire 03801, United States",43.0666105,-70.763359,Wibird Area,03801
Charlie Adams,1,"Langdon Street, Portsmouth, New Hampshire 03801, United States",43.074516,-70.7653624344262,Islington Creek,03801
Tina Scott,0,"Gates Street, Portsmouth, New Hampshire 03801, United States",43.07483,-70.751949,South End,03801
George Brown,3,"Mckinley Road, Portsmouth, New Hampshire 03801, United States",43.040078,-70.768478,Elwyn Park,03801
Daisy Garcia,0,"Lincoln Avenue, Portsmouth, New Hampshire 03801, United States",43.0679975,-70.7610185,Lincoln,03801
Kevin Johnson,1,"Echo Avenue, Portsmouth, New Hampshire 03801, United States",43.0837015,-70.7889985,Frank Jones Farm,03801
Ethan Miller,1,"932 Richards Avenue, Portsmouth, New Hampshire 03801, United States",43.066833,-70.757066,Richards Avenue Area,03801
Michael Lee,4,"196 Langdon Street, Portsmouth, New Hampshire 03801, United States",43.075423,-70.76561,Islington Creek,03801
Tina Brown,3,"834 Pearl Street, Manchester, New Hampshire 03104, United States",42.997458,-71.445088,Straw,03104
Alice Smith,5,"84 Pinehurst Road, Portsmouth, New Hampshire 03801, United States",43.063581,-70.759911,Broad Street,03801
Bob Hill,3,"Freedom Circle, Portsmouth, New Hampshire 03801, United States",43.03016,-70.79462,Maplehaven,03801
Alice Allen,2,"Pearl Street, Portsmouth, New Hampshire 03801, United States",43.07548,-70.76303,Islington Creek,03801
Isaac Johnson,1,"Aldrich Road, Portsmouth, New Hampshire 03801, United States",43.067279,-70.770189,Lafayette Park,03801
Ethan White,0,"13 Wibird Street, Portsmouth, New Hampshire 03801, United States",43.069159,-70.764869,Wibird Area,03801
Paula Lee,2,"133 Gardner Street, Portsmouth, New Hampshire 03801, United States",43.074667,-70.75007,South End,03801
Kevin Hill,3,"800 Woodbury Avenue, Portsmouth, New Hampshire 03801, United States",43.079129,-70.782329,Frank Jones Farm,03801
Charlie Garcia,3,"149 Pinehurst Road, Portsmouth, New Hampshire 03801, United States",43.062754,-70.759287,Broad Street,03801
Daisy Brown,1,"807 Leslie Drive, Portsmouth, New Hampshire 03801, United States",43.082404,-70.771343,Cutts Cove,03801
Rachel Baker,3,"Pinehurst Road, Portsmouth, New Hampshire 03801, United States",43.06348,-70.7591115,Broad Street,03801
Alice Garcia,5,"561 Spinney Road, Portsmouth, New Hampshire 03801, United States",43.062994,-70.773235,Lafayette Park,03801
Rachel Kim,2,"282 Maple Street, Portsmouth, New Hampshire 03801, United States",43.081213,-70.784988,Frank Jones Farm,03801
George Brown,5,"208 Leslie Drive, Portsmouth, New Hampshire 03801, United States",43.082317,-70.769055,Cutts Cove,03801
Paula Green,3,"1125 South Street, Portsmouth, New Hampshire 03801, United States",43.062806,-70.765079,Wibird Area,03801
Bob Adams,1,"Aldrich Road, Portsmouth, New Hampshire 03801, United States",43.067279,-70.770189,Lafayette Park,03801
Paula Kim,2,"Gardner Street, Portsmouth, New Hampshire 03801, United States",43.074546,-70.7508,South End,03801
Ethan Allen,2,"Hancock Street, Portsmouth, New Hampshire 03801, United States",43.07497,-70.7528205,South End,03801
Kevin Lee,3,"Madison Street, Portsmouth, New Hampshire 03801, United States",43.07045,-70.765807,Goodwin Park,03801
Daisy Baker,2,"Cass Street, Portsmouth, New Hampshire, United States",43.0701,-70.76919,Cass Street,03801
Charlie Miller,2,"468 Lincoln Avenue, Portsmouth, New Hampshire 03801, United States",43.067466,-70.762727,Wibird Area,03801
Rachel Allen,1,"229 Marcy Street, Portsmouth, New Hampshire 03801, United States",43.074701,-70.751567,South End,03801
Fiona Kim,5,"194 Mechanic Street, Portsmouth, New Hampshire 03801, United States",43.074054,-70.749646,South End,03801
Kevin Miller,4,"Deer Street, Portsmouth, New Hampshire 03801, United States",43.078175,-70.760861,North End,03801
Bob Kim,3,"Richards Avenue, Portsmouth, New Hampshire 03801, United States",43.0698125,-70.7593955,Richards Avenue Area,03801
Hannah Garcia,1,"Cabot Street, Portsmouth, New Hampshire 03801, United States",43.072342,-70.7652100192308,Goodwin Park,03801
Julia Turner,2,"Farm Lane, Portsmouth, New Hampshire 03801, United States",43.078808,-70.785036,Frank Jones Farm,03801
Sam Turner,0,"Leslie Drive, Portsmouth, New Hampshire 03801, United States",43.0825105,-70.7696875,Cutts Cove,03801
Sam Smith,2,"Cass Street, Portsmouth, New Hampshire, United States",43.0701,-70.76919,Cass Street,03801
Bob Lee,2,"381 Whipple Street, Manchester, New Hampshire 03102, United States",42.991328,-71.484615,Notre Dame,03102
Ethan Smith,1,"181 Islington Street, Portsmouth, New Hampshire 03801, United States",43.074194,-70.76409,Goodwin Park,03801
Paula Reed,0,"Greenleaf Avenue, Portsmouth, New Hampshire 03801, United States",43.05608,-70.7740335681818,Portsmouth Plains,03801
Quincy Harris,1,"277 Fleet Street, Portsmouth, New Hampshire 03801, United States",43.077305,-70.759633,Downtown,03801
Kevin Kim,0,"Kearsarge Way, Portsmouth, New Hampshire 03801, United States",43.08814,-70.7740905,Atlantic Heights,03801
Ethan Green,5,"Brewster Street, Portsmouth, New Hampshire 03801, United States",43.07469,-70.7647515,Islington Creek,03801
Hannah Allen,2,"Gardner Street, Portsmouth, New Hampshire 03801, United States",43.074546,-70.7508,South End,03801
Rachel Green,2,"Parker Street, Portsmouth, New Hampshire 03801, United States",43.0755905,-70.76288,Islington Creek,03801
Rachel Davis,5,"Mckinley Road, Portsmouth, New Hampshire 03801, United States",43.040078,-70.768478,Elwyn Park,03801
Rachel Clark,4,"527 Greenleaf Avenue, Portsmouth, New Hampshire 03801, United States",43.053405,-70.778685,Portsmouth Plains,03801
Julia Garcia,3,"123 Farm Lane, Portsmouth, New Hampshire 03801, United States",43.078522,-70.785051,Frank Jones Farm,03801
Daisy Smith,1,"Gardner Street, Portsmouth, New Hampshire 03801, United States",43.074546,-70.7508,South End,03801
Kevin Davis,5,"Echo Avenue, Portsmouth, New Hampshire 03801, United States",43.0837015,-70.7889985,Frank Jones Farm,03801
Alice Reed,5,"683 Spinney Road, Portsmouth, New Hampshire 03801, United States",43.062957,-70.773206,Lafayette Park,03801
Daisy Baker,1,"Farm Lane, Portsmouth, New Hampshire 03801, United States",43.078808,-70.785036,Frank Jones Farm,03801
Daisy Smith,3,"Adams Avenue, Portsmouth, New Hampshire 03801, United States",43.037709,-70.7667475,Elwyn Park,03801
Isaac Johnson,3,"Whipple Street, Portsmouth, New Hampshire 03801, United States",43.0752045,-70.7757859,Christian Shore,03801
Daisy Clark,3,"Leslie Drive, Portsmouth, New Hampshire 03801, United States",43.0825105,-70.7696875,Cutts Cove,03801
Hannah Wilson,2,"Thornton Street, Portsmouth, New Hampshire 03801, United States",43.0753285,-70.77354,Christian Shore,03801
Alice Hill,3,"Fleet Street, Portsmouth, New Hampshire 03801, United States",43.0761325714286,-70.7589378571429,Downtown,03801
Isaac Miller,1,"Pinehurst Road, Portsmouth, New Hampshire 03801, United States",43.06348,-70.7591115,Broad Street,03801
Paula Clark,1,"328 Marcy Street, Portsmouth, New Hampshire 03801, United States",43.073367,-70.750773,South End,03801
Lily Harris,5,"Salter Street, Portsmouth, New Hampshire 03801, United States",43.0725,-70.74937,South End,03801
Michael Johnson,0,"Middle Street, Portsmouth, New Hampshire 03801, United States",43.075487,-70.7603143333333,Downtown,03801
Charlie White,3,"Brewster Street, Portsmouth, New Hampshire 03801, United States",43.07469,-70.7647515,Islington Creek,03801
Kevin Allen,1,"Echo Avenue, Portsmouth, New Hampshire 03801, United States",43.0837015,-70.7889985,Frank Jones Farm,03801
George Brown,1,"437 Austin Street, Portsmouth, New Hampshire 03801, United States",43.070501,-70.766219,Goodwin Park,03801
Alice Adams,3,"Gardner Street, Portsmouth, New Hampshire 03801, United States",43.074546,-70.7508,South End,03801
Julia Harris,4,"Wibird Street, Portsmouth, New Hampshire 03801, United States",43.0666105,-70.763359,Wibird Area,03801
Tina Johnson,1,"New Castle Avenue, Portsmouth, New Hampshire 03801, United States",43.070468,-70.745669,Little Harbor,03801
Bob Brown,2,"Parker Street, Portsmouth, New Hampshire 03801, United States",43.0755905,-70.76288,Islington Creek,03801
Michael White,5,"531 Leslie Drive, Portsmouth, New Hampshire 03801, United States",43.082397,-70.770908,Cutts Cove,03801
Paula Wilson,5,"Echo Avenue, Portsmouth, New Hampshire 03801, United States",43.0837015,-70.7889985,Frank Jones Farm,03801
Rachel Kim,1,"New Castle Avenue, Portsmouth, New Hampshire 03801, United States",43.070468,-70.745669,Little Harbor,03801
Hannah White,5,"757 Pearl Street, Manchester, New Hampshire 03104, United States",42.997456,-71.445112,Straw,03104
Paula Hill,2,"Salter Street, Portsmouth, New Hampshire 03801, United States",43.0725,-70.74937,South End,03801
Bob Adams,3,"63 Rockland Street, Portsmouth, New Hampshire 03801, United States",43.070518,-70.757982,Richards Avenue Area,03801
Sam White,0,"325 Leslie Drive, Portsmouth, New Hampshire 03801, United States",43.083143,-70.768727,Cutts Cove,03801
Bob Kim,0,"Brewster Street, Portsmouth, New Hampshire 03801, United States",43.07469,-70.7647515,Islington Creek,03801
Isaac Turner,1,"167 Madison Street, Portsmouth, New Hampshire 03801, United States",43.070871,-70.766727,Goodwin Park,03801
Hannah Hill,2,"441 Richards Avenue, Portsmouth, New Hampshire 03801, United States",43.067729,-70.75728,Richards Avenue Area,03801
Rachel Adams,0,"309 Marcy Street, Portsmouth, New Hampshire 03801, United States",43.073528,-70.750861,South End,03801
Bob Miller,0,"Cass Street, Portsmouth, New Hampshire 03801, United States",43.070257,-70.7675665,Cass Street,03801
Ethan Allen,0,"85 Austin Street, Portsmouth, New Hampshire 03801, United States",43.07274,-70.76311,Goodwin Park,03801
Fiona Adams,3,"Langdon Street, Portsmouth, New Hampshire 03801, United States",43.074516,-70.7653624344262,Islington Creek,03801
Fiona White,2,"Echo Avenue, Portsmouth, New Hampshire 03801, United States",43.0837015,-70.7889985,Frank Jones Farm,03801
Rachel Baker,0,"Pinehurst Road, Portsmouth, New Hampshire 03801, United States",43.06348,-70.7591115,Broad Street,03801
Julia Scott,5,"Salter Street, Portsmouth, New Hampshire 03801, United States",43.0725,-70.74937,South End,03801
Fiona Hill,4,"829 Broad Street, Portsmouth, New Hampshire 03801, United States",43.061902,-70.756441,Broad Street,03801
Ethan Turner,4,"1029 Granite Street, Manchester, New Hampshire 03102, United States",42.982858,-71.480043,Piscataquog,03102
George White,3,"Wibird Street, Portsmouth, New Hampshire 03801, United States",43.0666105,-70.763359,Wibird Area,03801
Hannah Brown,0,"Aldrich Road, Portsmouth, New Hampshire 03801, United States",43.067279,-70.770189,Lafayette Park,03801
Nancy Davis,3,"Brewster Street, Portsmouth, New Hampshire 03801, United States",43.07469,-70.7647515,Islington Creek,03801
Bob Hill,4,"Rockland Street, Portsmouth, New Hampshire 03801, United States",43.069858,-70.759441,Richards Avenue Area,03801
Bob Turner,0,"387 Cass Street, Portsmouth, New Hampshire 03801, United States",43.068803,-70.765881,Cass Street,03801
Tina White,5,"Pinehurst Road, Portsmouth, New Hampshire 03801, United States",43.06348,-70.7591115,Broad Street,03801
Julia Reed,0,"Langdon Street, Portsmouth, New Hampshire 03801, United States",43.074516,-70.7653624344262,Islington Creek,03801
Quincy Allen,2,"Rockland Street, Portsmouth, New Hampshire 03801, United States",43.069858,-70.759441,Richards Avenue Area,03801
Kevin Adams,4,"Mechanic Street, Portsmouth, New Hampshire 03801, United States",43.0747005,-70.750327,South End,03801
Ethan Wilson,1,"1158 Bridge Street, Manchester, New Hampshire 03104, United States",42.9947,-71.408812,Youngsville,03104
Paula Smith,5,"Leslie Drive, Portsmouth, New Hampshire 03801, United States",43.0825105,-70.7696875,Cutts Cove,03801
Paula Wilson,4,"Willard Avenue, Portsmouth, New Hampshire 03801, United States",43.0642175,-70.7653895,Wibird Area,03801
Nancy Lee,3,"637 Granite Street, Manchester, New Hampshire 03102, United States",42.982993,-71.47995,Piscataquog,03102
Hannah Baker,4,"172 Mckinley Road, Portsmouth, New Hampshire 03801, United States",43.040391,-70.771765,Elwyn Park,03801
Michael White,3,"1496 Maplewood Avenue, Portsmouth, New Hampshire 03801, United States",43.082753,-70.784624,Frank Jones Farm,03801
Kevin Baker,0,"Leslie Drive, Portsmouth, New Hampshire 03801, United States",43.0825105,-70.7696875,Cutts Cove,03801
Michael Kim,2,"Mechanic Street, Portsmouth, New Hampshire 03801, United States",43.0747005,-70.750327,South End,03801
Oliver Allen,2,"Langdon Street, Portsmouth, New Hampshire 03801, United States",43.074516,-70.7653624344262,Islington Creek,03801
Hannah Garcia,3,"Gardner Street, Portsmouth, New Hampshire 03801, United States",43.074546,-70.7508,South End,03801
Lily Garcia,3,"New Castle Avenue, Portsmouth, New Hampshire 03801, United States",43.070468,-70.745669,Little Harbor,03801
Quincy Smith,1,"962 Pearl Street, Manchester, New Hampshire 03104, United States",42.99746,-71.445048,Straw,03104
Oliver Johnson,0,"High Street, Portsmouth, New Hampshire 03801, United States",43.078309,-70.7588895,Downtown,03801
Tina Reed,1,"922 Broad Street, Portsmouth, New Hampshire 03801, United States",43.061858,-70.756402,Broad Street,03801
Michael Smith,5,"Salter Street, Portsmouth, New Hampshire 03801, United States",43.0725,-70.74937,South End,03801
Hannah Kim,2,"Rockland Street, Portsmouth, New Hampshire 03801, United States",43.069858,-70.759441,Richards Avenue Area,03801
Charlie White,5,"Lincoln Avenue, Portsmouth, New Hampshire 03801, United States",43.0679975,-70.7610185,Lincoln,03801
Julia Clark,1,"Aldrich Road, Portsmouth, New Hampshire 03801, United States",43.067279,-70.770189,Lafayette Park,03801
Daisy Green,5,"Leslie Drive, Portsmouth, New Hampshire 03801, United States",43.0825105,-70.7696875,Cutts Cove,03801
Bob Hill,2,"Daniel Street, Portsmouth, New Hampshire 03801, United States",43.077515,-70.7554332816901,Downtown,03801
Oliver Turner,3,"849 Spinney Road, Portsmouth, New Hampshire 03801, United States",43.062907,-70.773168,Lafayette Park,03801
Sam Clark,2,"351 Richards Avenue, Portsmouth, New Hampshire 03801, United States",43.068786,-70.758449,Richards Avenue Area,03801
Paula Lee,2,"146 Mckinley Road, Portsmouth, New Hampshire 03801, United States",43.040364,-70.771649,Elwyn Park,03801
Oliver Brown,3,"Farm Lane, Portsmouth, New Hampshire 03801, United States",43.078808,-70.785036,Frank Jones Farm,03801
Fiona Kim,1,"920 State St, Portsmouth, New Hampshire 03801, United States",43.07088,-70.76772,Goodwin Park,03801
Kevin Green,1,"Mechanic Street, Portsmouth, New Hampshire 03801, United States",43.0747005,-70.750327,South End,03801
Isaac Smith,4,"Adams Avenue, Portsmouth, New Hampshire 03801, United States",43.037709,-70.7667475,Elwyn Park,03801
Bob Adams,3,"951 Kearsarge Way, Portsmouth, New Hampshire 03801, United States",43.092162,-70.771259,Atlantic Heights,03801
Alice Turner,3,"Farm Lane, Portsmouth, New Hampshire 03801, United States",43.078808,-70.785036,Frank Jones Farm,03801
Charlie Miller,1,"492 Lincoln Avenue, Portsmouth, New Hampshire 03801, United States",43.067235,-70.763824,Wibird Area,03801
Rachel Lee,4,"Echo Avenue, Portsmouth, New Hampshire 03801, United States",43.0837015,-70.7889985,Frank Jones Farm,03801
Rachel Davis,0,"260 Cass Street, Portsmouth, New Hampshire 03801, United States",43.069018,-70.766214,Cass Street,03801
Rachel Smith,3,"Spinney Road, Portsmouth, New Hampshire 03801, United States",43.0645575,-70.77424,Lafayette Park,03801
Michael Turner,3,"Mechanic Street, Portsmouth, New Hampshire 03801, United States",43.0747005,-70.750327,South End,03801
George Lee,5,"Farm Lane, Portsmouth, New Hampshire 03801, United States",43.078808,-70.785036,Frank Jones Farm,03801
Alice Miller,2,"Thornton Street, Portsmouth, New Hampshire 03801, United States",43.0753285,-70.77354,Christian Shore,03801
Daisy Baker,1,"High Street, Portsmouth, New Hampshire 03801, United States",43.078309,-70.7588895,Downtown,03801
George Reed,1,"Adams Avenue, Portsmouth, New Hampshire 03801, United States",43.037709,-70.7667475,Elwyn Park,03801
Ethan Lee,1,"Salter Street, Portsmouth, New Hampshire 03801, United States",43.0725,-70.74937,South End,03801
Hannah Hill,4,"810 Miller Avenue, Portsmouth, New Hampshire 03801, United States",43.066125,-70.757961,Lincoln,03801
Sam Smith,0,"South Mill Street, Portsmouth, New Hampshire 03801, United States",43.07322,-70.75026,South End,03801
Charlie Miller,3,"799 Hanover Street, Portsmouth, New Hampshire 03801, United States",43.074846,-70.764544,Islington Creek,03801
Quincy Kim,5,"252 Cabot Street, Portsmouth, New Hampshire 03801, United States",43.073077,-70.766493,Islington Creek,03801
Julia Clark,5,"1796 Hanover Street, Manchester, New Hampshire 03104, United States",42.989826,-71.407012,Youngsville,03104
Hannah Hill,1,"Langdon Street, Portsmouth, New Hampshire 03801, United States",43.074516,-70.7653624344262,Islington Creek,03801
Quincy Green,1,"217 Peverly Hill Road, Portsmouth, New Hampshire 03801, United States",43.055965,-70.78099,Portsmouth Plains,03801
Lily Miller,3,"New Castle Avenue, Portsmouth, New Hampshire 03801, United States",43.070468,-70.745669,Little Harbor,03801
Tina Turner,1,"Austin Street, Portsmouth, New Hampshire 03801, United States",43.07178,-70.76416,Goodwin Park,03801
Nancy Scott,5,"Austin Street, Portsmouth, New Hampshire 03801, United States",43.07178,-70.76416,Goodwin Park,03801
Bob Turner,2,"1474 South Street, Portsmouth, New Hampshire 03801, United States",43.062611,-70.770623,Lafayette Park,03801
Isaac Allen,5,"Farm Lane, Portsmouth, New Hampshire 03801, United States",43.078808,-70.785036,Frank Jones Farm,03801
Sam Johnson,0,"1143 Sagamore Avenue, Portsmouth, New Hampshire 03801, United States",43.0539,-70.748294,Sagamore Grove,03801
George Smith,0,"Spinney Road, Portsmouth, New Hampshire 03801, United States",43.0645575,-70.77424,Lafayette Park,03801
Oliver Hill,4,"Langdon Street, Portsmouth, New Hampshire 03801, United States",43.074516,-70.7653624344262,Islington Creek,03801
Alice Miller,2,"Whipple Street, Portsmouth, New Hampshire 03801, United States",43.0752045,-70.7757859,Christian Shore,03801
Kevin Scott,0,"Salter Street, Portsmouth, New Hampshire 03801, United States",43.0725,-70.74937,South End,03801
Lily Garcia,2,"Brackett Lane, Portsmouth, New Hampshire 03801, United States",43.068337,-70.754319,Little Harbor,03801
Quincy Smith,1,"Brewster Street, Portsmouth, New Hampshire 03801, United States",43.07469,-70.7647515,Islington Creek,03801
Paula White,2,"81 Deer Street, Portsmouth, New Hampshire 03801, United States",43.079118,-70.760126,North End,03801
Fiona Allen,4,"Salter Street, Portsmouth, New Hampshire 03801, United States",43.0725,-70.74937,South End,03801
Charlie White,3,"Adams Avenue, Portsmouth, New Hampshire 03801, United States",43.037709,-70.7667475,Elwyn Park,03801
Alice Baker,0,"632 Richards Avenue, Portsmouth, New Hampshire 03801, United States",43.067159,-70.757281,Richards Avenue Area,03801
Kevin Baker,4,"77 Lafayette Road, Portsmouth, New Hampshire 03801, United States",43.063577,-70.767758,Wibird Area,03801
Tina Clark,1,"Salter Street, Portsmouth, New Hampshire 03801, United States",43.0725,-70.74937,South End,03801
Isaac Johnson,1,"221 Madison Street, Portsmouth, New Hampshire 03801, United States",43.071325,-70.767293,Goodwin Park,03801
Hannah Harris,0,"Brewster Street, Portsmouth, New Hampshire 03801, United States",43.07469,-70.7647515,Islington Creek,03801
Nancy Wilson,3,"Fernald Court, Portsmouth, New Hampshire 03801, United States",43.069881,-70.7488905,Little Harbor,03801
Bob Davis,3,"247 Leslie Drive, Portsmouth, New Hampshire 03801, United States",43.082869,-70.769565,Cutts Cove,03801
Ethan Green,1,"Brackett Lane, Portsmouth, New Hampshire 03801, United States",43.068337,-70.754319,Little Harbor,03801
Kevin White,3,"536 Hanover Street, Portsmouth, New Hampshire 03801, United States",43.0749,-70.76446,Islington Creek,03801
Daisy Scott,2,"Farm Lane, Portsmouth, New Hampshire 03801, United States",43.078808,-70.785036,Frank Jones Farm,03801
Charlie Smith,4,"New Castle Avenue, Portsmouth, New Hampshire 03801, United States",43.070468,-70.745669,Little Harbor,03801
Michael Lee,3,"Greenleaf Avenue, Portsmouth, New Hampshire 03801, United States",43.05608,-70.7740335681818,Portsmouth Plains,03801
Daisy Baker,1,"Spinney Road, Portsmouth, New Hampshire 03801, United States",43.0645575,-70.77424,Lafayette Park,03801
Paula Garcia,0,"Greenleaf Avenue, Portsmouth, New Hampshire 03801, United States",43.05608,-70.7740335681818,Portsmouth Plains,03801
Tina Davis,0,"446 Hanover Street, Manchester, New Hampshire 03104, United States",42.991201,-71.447178,Hanover Hill,03104
Ethan Miller,2,"Wibird Street, Portsmouth, New Hampshire 03801, United States",43.0666105,-70.763359,Wibird Area,03801
Ethan Harris,3,"Market St, Portsmouth, New Hampshire 03801, United States",43.0819105,-70.7675937987805,Cutts Cove,03801
Bob Brown,0,"Pinehurst Road, Portsmouth, New Hampshire 03801, United States",43.06348,-70.7591115,Broad Street,03801
George Johnson,2,"1546 Hanover Street, Manchester, New Hampshire 03104, United States",42.989843,-71.407082,Youngsville,03104
Daisy Turner,5,"Pleasant Street, Portsmouth, New Hampshire 03801, United States",43.074555,-70.7545881818182,South End,03801
Oliver Davis,4,"767 Bartlett Street, Manchester, New Hampshire 03102, United States",42.993445,-71.481571,Notre Dame,03102
Michael Harris,4,"309 Whipple Street, Manchester, New Hampshire 03102, United States",42.991328,-71.484615,Notre Dame,03102
Lily Davis,4,"Echo Avenue, Portsmouth, New Hampshire 03801, United States",43.0837015,-70.7889985,Frank Jones Farm,03801
Tina Wilson,0,"Daniel Street, Portsmouth, New Hampshire 03801, United States",43.077515,-70.7554332816901,Downtown,03801
Quincy Baker,1,"Spinney Road, Portsmouth, New Hampshire 03801, United States",43.0645575,-70.77424,Lafayette Park,03801
Oliver Baker,1,"New Castle Avenue, Portsmouth, New Hampshire 03801, United States",43.070468,-70.745669,Little Harbor,03801
Tina Clark,1,"Wibird Street, Portsmouth, New Hampshire 03801, United States",43.0666105,-70.763359,Wibird Area,03801
Quincy Scott,0,"Cabot Street, Portsmouth, New Hampshire 03801, United States",43.072342,-70.7652100192308,Goodwin Park,03801
Michael Allen,3,"779 Marcy Street, Portsmouth, New Hampshire 03801, United States",43.070843,-70.74965,South End,03801
Hannah Miller,2,"388 State Street, Portsmouth, New Hampshire 03801, United States",43.07501,-70.75918,Downtown,03801
Oliver Kim,5,"Farm Lane, Portsmouth, New Hampshire 03801, United States",43.078808,-70.785036,Frank Jones Farm,03801
Quincy Davis,1,"Brewster Street, Portsmouth, New Hampshire 03801, United States",43.07469,-70.7647515,Islington Creek,03801
Kevin Scott,4,"Freedom Circle, Portsmouth, New Hampshire 03801, United States",43.03016,-70.79462,Maplehaven,03801
Isaac Wilson,4,"Langdon Street, Portsmouth, New Hampshire 03801, United States",43.074516,-70.7653624344262,Islington Creek,03801
Julia Allen,3,"1470 Sagamore Avenue, Portsmouth, New Hampshire 03801, United States",43.051065,-70.748,Sagamore Grove,03801
Quincy Wilson,5,"220 Lincoln Avenue, Portsmouth, New Hampshire 03801, United States",43.069019,-70.758588,Richards Avenue Area,03801
Nancy Turner,4,"30 Market Street, Portsmouth, New Hampshire 03801, United States",43.077644,-70.757487,Downtown,03801
Fiona Hill,2,"Granite Street, Portsmouth, New Hampshire 03801, United States",43.0855095,-70.7863505,Frank Jones Farm,03801
Julia Green,5,"234 Peverly Hill Road, Portsmouth, New Hampshire 03801, United States",43.056021,-70.781039,Portsmouth Plains,03801
Lily Johnson,5,"Langdon Street, Portsmouth, New Hampshire 03801, United States",43.074516,-70.7653624344262,Islington Creek,03801
George White,2,"Salter Street, Portsmouth, New Hampshire 03801, United States",43.0725,-70.74937,South End,03801
Julia Reed,0,"South Mill Street, Portsmouth, New Hampshire 03801, United States",43.07322,-70.75026,South End,03801
Fiona Scott,0,"489 Maplewood Avenue, Portsmouth, New Hampshire 03801, United States",43.080722,-70.770318,Cutts Cove,03801
Sam Adams,4,"Parker Street, Portsmouth, New Hampshire 03801, United States",43.0755905,-70.76288,Islington Creek,03801
Michael Harris,3,"Aldrich Road, Portsmouth, New Hampshire 03801, United States",43.067279,-70.770189,Lafayette Park,03801
Ethan Reed,4,"Whipple Street, Portsmouth, New Hampshire 03801, United States",43.0752045,-70.7757859,Christian Shore,03801
Fiona White,0,"121 Langdon Street, Portsmouth, New Hampshire 03801, United States",43.075213,-70.765826,Islington Creek,03801
Nancy Allen,2,"957 Bartlett Street, Manchester, New Hampshire 03102, United States",42.993291,-71.480634,Notre Dame,03102
Tina Adams,0,"845 Wibird Street, Portsmouth, New Hampshire 03801, United States",43.064035,-70.762536,Wibird Area,03801
Alice Clark,2,"Madison Street, Portsmouth, New Hampshire 03801, United States",43.07045,-70.765807,Goodwin Park,03801
Charlie Kim,0,"Aldrich Road, Portsmouth, New Hampshire 03801, United States",43.067279,-70.770189,Lafayette Park,03801
Michael Scott,5,"Parker Street, Portsmouth, New Hampshire 03801, United States",43.0755905,-70.76288,Islington Creek,03801
George Kim,3,"Salter Street, Portsmouth, New Hampshire 03801, United States",43.0725,-70.74937,South End,03801
Isaac Kim,5,"296 Richards Avenue, Portsmouth, New Hampshire 03801, United States",43.069247,-70.759147,Richards Avenue Area,03801
Fiona Lee,0,"Mechanic Street, Portsmouth, New Hampshire 03801, United States",43.0747005,-70.750327,South End,03801
Julia Miller,1,"300 Middle Road, Portsmouth, New Hampshire 03801, United States",43.062019,-70.772348,Lafayette Park,03801
Nancy Davis,3,"715 Sagamore Avenue, Portsmouth, New Hampshire 03801, United States",43.057267,-70.75186,Sagamore Grove,03801
Fiona Wilson,5,"1021 Granite Street, Manchester, New Hampshire 03102, United States",42.982858,-71.480043,Piscataquog,03102
Daisy Reed,3,"525 High Street, Portsmouth, New Hampshire 03801, United States",43.079023,-70.75988,North End,03801
Kevin Miller,2,"High Street, Portsmouth, New Hampshire 03801, United States",43.078309,-70.7588895,Downtown,03801
Fiona Johnson,3,"Brewster Street, Portsmouth, New Hampshire 03801, United States",43.07469,-70.7647515,Islington Creek,03801
Julia Wilson,0,"Mechanic Street, Portsmouth, New Hampshire 03801, United States",43.0747005,-70.750327,South End,03801
Fiona Allen,4,"538 Broad Street, Portsmouth, New Hampshire 03801, United States",43.062953,-70.75717,Broad Street,03801
Paula Hill,4,"Whipple Street, Portsmouth, New Hampshire 03801, United States",43.0752045,-70.7757859,Christian Shore,03801
Hannah Harris,3,"Summit Dr, Portsmouth, New Hampshire 03811, United States",43.074839,-70.764804,Islington Creek,03811
Michael Adams,4,"282 Langdon Street, Portsmouth, New Hampshire 03801, United States",43.075434,-70.765592,Islington Creek,03801
Rachel Reed,1,"Granite Street, Portsmouth, New Hampshire 03801, United States",43.0855095,-70.7863505,Frank Jones Farm,03801
Fiona Scott,4,"Thornton Street, Portsmouth, New Hampshire 03801, United States",43.0753285,-70.77354,Christian Shore,03801
Charlie Reed,2,"Kane Street, Portsmouth, New Hampshire 03801, United States",43.0784705,-70.7714085,Christian Shore,03801
Nancy Allen,1,"1082 Woodbury Avenue, Portsmouth, New Hampshire 03801, United States",43.083116,-70.785615,Frank Jones Farm,03801
Nancy Turner,3,"64 Brewster Street, Portsmouth, New Hampshire 03801, United States",43.075434,-70.765187,Islington Creek,03801
Lily Baker,5,"South Mill Street, Portsmouth, New Hampshire 03801, United States",43.07322,-70.75026,South End,03801
Julia Green,1,"Leslie Drive, Portsmouth, New Hampshire 03801, United States",43.0825105,-70.7696875,Cutts Cove,03801
Paula Brown,3,"Cabot Street, Portsmouth, New Hampshire 03801, United States",43.072342,-70.7652100192308,Goodwin Park,03801
Lily Wilson,0,"Echo Avenue, Portsmouth, New Hampshire 03801, United States",43.0837015,-70.7889985,Frank Jones Farm,03801
Isaac Smith,0,"Pinehurst Road, Portsmouth, New Hampshire 03801, United States",43.06348,-70.7591115,Broad Street,03801
Nancy Baker,1,"1831 Bridge Street, Manchester, New Hampshire 03104, United States",42.994285,-71.404673,Youngsville,03104
Daisy Allen,3,"South Mill Street, Portsmouth, New Hampshire 03801, United States",43.07322,-70.75026,South End,03801
Oliver Lee,4,"Hancock Street, Portsmouth, New Hampshire 03801, United States",43.07497,-70.7528205,South End,03801
Isaac Brown,1,"1023 Greenleaf Avenue, Portsmouth, New Hampshire 03801, United States",43.053325,-70.778835,Portsmouth Plains,03801
Alice Hill,1,"Pinehurst Road, Portsmouth, New Hampshire 03801, United States",43.06348,-70.7591115,Broad Street,03801
Nancy White,3,"234 Mechanic Street, Portsmouth, New Hampshire 03801, United States",43.074015,-70.749629,South End,03801
Quincy Smith,0,"Chestnut Street, Portsmouth, New Hampshire 03801, United States",43.0757385,-70.759677,Downtown,03801
Rachel Lee,5,"959 Maplewood Avenue, Portsmouth, New Hampshire 03801, United States",43.082075,-70.778925,Frank Jones Farm,03801
Paula Brown,4,"Cabot Street, Portsmouth, New Hampshire 03801, United States",43.072342,-70.7652100192308,Goodwin Park,03801
Nancy Baker,4,"218 Pleasant Street, Portsmouth, New Hampshire 03801, United States",43.074586,-70.755345,South End,03801
Sam Turner,3,"905 Leslie Drive, Portsmouth, New Hampshire 03801, United States",43.082406,-70.771498,Cutts Cove,03801
Quincy Hill,3,"1105 Hanover Street, Manchester, New Hampshire 03104, United States",42.987198,-71.419144,Eaton Heights,03104
Michael Smith,2,"Pinehurst Road, Portsmouth, New Hampshire 03801, United States",43.06348,-70.7591115,Broad Street,03801
Oliver Reed,0,"Cass Street, Portsmouth, New Hampshire 03801, United States",43.070257,-70.7675665,Cass Street,03801
Oliver Davis,5,"Willard Avenue, Portsmouth, New Hampshire 03801, United States",43.0642175,-70.7653895,Wibird Area,03801
Daisy Allen,2,"Salter Street, Portsmouth, New Hampshire 03801, United States",43.0725,-70.74937,South End,03801
Paula Brown,5,"South Mill Street, Portsmouth, New Hampshire 03801, United States",43.07322,-70.75026,South End,03801
Paula Allen,5,"Mckinley Road, Portsmouth, New Hampshire 03801, United States",43.040078,-70.768478,Elwyn Park,03801
Fiona Lee,1,"869 Bartlett Street, Manchester, New Hampshire 03102, United States",42.993376,-71.481066,Notre Dame,03102
Ethan Turner,1,"Mechanic Street, Portsmouth, New Hampshire 03801, United States",43.0747005,-70.750327,South End,03801
George Green,4,"Willard Avenue, Portsmouth, New Hampshire 03801, United States",43.0642175,-70.7653895,Wibird Area,03801
Michael Harris,4,"547 Miller Avenue, Portsmouth, New Hampshire 03801, United States",43.066195,-70.757999,Lincoln,03801
George Johnson,4,"Cabot Street, Portsmouth, New Hampshire 03801, United States",43.072342,-70.7652100192308,Goodwin Park,03801
Charlie Scott,3,"Echo Avenue, Portsmouth, New Hampshire 03801, United States",43.0837015,-70.7889985,Frank Jones Farm,03801
Tina Green,1,"Willard Avenue, Portsmouth, New Hampshire 03801, United States",43.0642175,-70.7653895,Wibird Area,03801
Lily Brown,4,"1951 Hanover Street, Manchester, New Hampshire 03104, United States",42.989813,-71.406969,Youngsville,03104
Fiona Harris,2,"Madison Street, Portsmouth, New Hampshire 03801, United States",43.07045,-70.765807,Goodwin Park,03801
Alice Wilson,0,"219 Austin Street, Portsmouth, New Hampshire 03801, United States",43.071619,-70.764717,Goodwin Park,03801
Oliver Clark,2,"Fernald Court, Portsmouth, New Hampshire 03801, United States",43.069881,-70.7488905,Little Harbor,03801
Lily Lee,2,"Farm Lane, Portsmouth, New Hampshire 03801, United States",43.078808,-70.785036,Frank Jones Farm,03801
Fiona Johnson,5,"Cabot Street, Portsmouth, New Hampshire 03801, United States",43.072342,-70.7652100192308,Goodwin Park,03801
Paula Davis,5,"238 Madison Street, Portsmouth, New Hampshire 03801, United States",43.071325,-70.767293,Goodwin Park,03801
Bob White,4,"Marcy Street, Portsmouth, New Hampshire 03801, United States",43.0737915,-70.751238,South End,03801
Nancy White,4,"729 Bartlett Street, Manchester, New Hampshire 03102, United States",42.993448,-71.481762,Notre Dame,03102
Tina Green,2,"Whipple Street, Portsmouth, New Hampshire 03801, United States",43.0752045,-70.7757859,Christian Shore,03801
Tina Turner,3,"5 Aldrich Road, Portsmouth, New Hampshire 03801, United States",43.06762,-70.766824,Lafayette Park,03801
Nancy Garcia,3,"437 Ledgewood Road, Manchester, New Hampshire 03104, United States",43.019343,-71.455548,North End,03104
Alice Smith,2,"South Street, Portsmouth, New Hampshire 03801, United States",43.0658175,-70.7597385,Lincoln,03801
Lily Allen,5,"Hancock Street, Portsmouth, New Hampshire 03801, United States",43.07497,-70.7528205,South End,03801
Hannah Garcia,2,"South Street, Portsmouth, New Hampshire 03801, United States",43.0658175,-70.7597385,Lincoln,03801
Kevin Davis,2,"Adams Avenue, Portsmouth, New Hampshire 03801, United States",43.037709,-70.7667475,Elwyn Park,03801
Sam White,0,"Salter Street, Portsmouth, New Hampshire 03801, United States",43.0725,-70.74937,South End,03801
Ethan Adams,4,"Gardner Street, Portsmouth, New Hampshire 03801, United States",43.074546,-70.7508,South End,03801
Julia Clark,2,"Echo Avenue, Portsmouth, New Hampshire 03801, United States",43.0837015,-70.7889985,Frank Jones Farm,03801
Daisy Scott,4,"Gardner Street, Portsmouth, New Hampshire 03801, United States",43.074546,-70.7508,South End,03801
Quincy Kim,0,"Willard Avenue, Portsmouth, New Hampshire 03801, United States",43.0642175,-70.7653895,Wibird Area,03801
Alice Clark,4,"Whipple Street, Portsmouth, New Hampshire 03801, United States",43.0752045,-70.7757859,Christian Shore,03801
Ethan Green,1,"Mckinley Road, Portsmouth, New Hampshire 03801, United States",43.040078,-70.768478,Elwyn Park,03801
Julia Miller,4,"Brewster Street, Portsmouth, New Hampshire 03801, United States",43.07469,-70.7647515,Islington Creek,03801
Kevin Kim,5,"1677 Bridge Street, Manchester, New Hampshire 03104, United States",42.994261,-71.40444,Youngsville,03104
Daisy Baker,1,"Whipple Street, Portsmouth, New Hampshire 03801, United States",43.0752045,-70.7757859,Christian Shore,03801
Quincy Garcia,4,"Austin Street, Portsmouth, New Hampshire 03801, United States",43.07178,-70.76416,Goodwin Park,03801
Ethan Baker,0,"Salter Street, Portsmouth, New Hampshire 03801, United States",43.0725,-70.74937,South End,03801
Sam Brown,1,"Mechanic Street, Portsmouth, New Hampshire 03801, United States",43.0747005,-70.750327,South End,03801
Lily White,0,"Parker Street, Portsmouth, New Hampshire 03801, United States",43.0755905,-70.76288,Islington Creek,03801
Lily Allen,0,"245 Sagamore Avenue, Portsmouth, New Hampshire 03801, United States",43.063047,-70.756155,Broad Street,03801
Nancy Wilson,3,"Mechanic Street, Portsmouth, New Hampshire 03801, United States",43.0747005,-70.750327,South End,03801
Charlie Johnson,1,"41 Peverly Hill Road, Portsmouth, New Hampshire 03801, United States",43.055383,-70.780494,Portsmouth Plains,03801
Nancy Clark,5,"Langdon Street, Portsmouth, New Hampshire 03801, United States",43.074516,-70.7653624344262,Islington Creek,03801
Tina Hill,1,"972 Middle Street, Portsmouth, New Hampshire 03801, United States",43.064581,-70.767288,Lafayette Park,03801
Sam Clark,0,"392 Russell Street, Manchester, New Hampshire 03104, United States",43.007566,-71.452983,Straw,03104
Alice Baker,1,"877 Marcy Street, Portsmouth, New Hampshire 03801, United States",43.070802,-70.749629,South End,03801
Sam Scott,0,"Willard Avenue, Portsmouth, New Hampshire 03801, United States",43.0642175,-70.7653895,Wibird Area,03801
Nancy Davis,2,"Echo Avenue, Portsmouth, New Hampshire 03801, United States",43.0837015,-70.7889985,Frank Jones Farm,03801
Fiona Wilson,1,"Congress Street, Portsmouth, New Hampshire 03801, United States",43.076422,-70.759307,Downtown,03801
Sam Hill,1,"Cass Street, Portsmouth, New Hampshire, United States",43.0701,-70.76919,Cass Street,03801
Michael Baker,1,"Mechanic Street, Portsmouth, New Hampshire 03801, United States",43.0747005,-70.750327,South End,03801
Paula Hill,0,"121 Rockland Street, Portsmouth, New Hampshire 03801, United States",43.070364,-70.758541,Richards Avenue Area,03801
Fiona Garcia,2,"157 Marcy Street, Portsmouth, New Hampshire 03801, United States",43.075276,-70.751705,South End,03801
Rachel Adams,0,"Willard Avenue, Portsmouth, New Hampshire 03801, United States",43.0642175,-70.7653895,Wibird Area,03801
Charlie Baker,1,"Whipple Street, Portsmouth, New Hampshire 03801, United States",43.0752045,-70.7757859,Christian Shore,03801
Lily White,4,"425 Russell Street, Manchester, New Hampshire 03104, United States",43.00756,-71.452982,Straw,03104
Bob Miller,4,"Langdon Street, Portsmouth, New Hampshire 03801, United States",43.074516,-70.7653624344262,Islington Creek,03801
Tina Clark,0,"Pinehurst Road, Portsmouth, New Hampshire 03801, United States",43.06348,-70.7591115,Broad Street,03801
Alice Allen,5,"Spinney Road, Portsmouth, New Hampshire 03801, United States",43.0645575,-70.77424,Lafayette Park,03801
Nancy Reed,2,"1362 Sagamore Avenue, Portsmouth, New Hampshire 03801, United States",43.05135,-70.747923,Sagamore Grove,03801
Charlie Adams,1,"437 Greenleaf Avenue, Portsmouth, New Hampshire 03801, United States",43.053421,-70.778657,Portsmouth Plains,03801
Julia Adams,2,"47 Gardner Street, Portsmouth, New Hampshire 03801, United States",43.074553,-70.750436,South End,03801
Paula Green,3,"931 Leslie Drive, Portsmouth, New Hampshire 03801, United States",43.082407,-70.771539,Cutts Cove,03801
George Wilson,3,"72 Cass Street, Portsmouth, New Hampshire 03801, United States",43.070848,-70.769028,Cass Street,03801
Daisy Baker,3,"532 Bartlett Street, Manchester, New Hampshire 03102, United States",42.993309,-71.482595,Notre Dame,03102
Rachel Baker,1,"611 Pleasant Street, Portsmouth, New Hampshire 03801, United States",43.073144,-70.750938,South End,03801
Charlie Lee,3,"Langdon Street, Portsmouth, New Hampshire 03801, United States",43.074516,-70.7653624344262,Islington Creek,03801
Michael Wilson,0,"593 Bartlett Street, Manchester, New Hampshire 03102, United States",42.993356,-71.482435,Notre Dame,03102
Rachel Harris,1,"Rockland Street, Portsmouth, New Hampshire 03801, United States",43.069858,-70.759441,Richards Avenue Area,03801
Julia Reed,2,"Parker Street, Portsmouth, New Hampshire 03801, United States",43.0755905,-70.76288,Islington Creek,03801
Hannah Davis,5,"Farm Lane, Portsmouth, New Hampshire 03801, United States",43.078808,-70.785036,Frank Jones Farm,03801
Oliver Johnson,5,"290 Austin Street, Portsmouth, New Hampshire 03801, United States",43.070756,-70.765886,Goodwin Park,03801
Hannah Hill,3,"1392 Bridge Street, Manchester, New Hampshire 03104, United States",42.994292,-71.404742,Youngsville,03104
Julia Hill,4,"672 Marcy Street, Portsmouth, New Hampshire 03801, United States",43.070891,-70.74967,South End,03801
Kevin Hill,1,"Gardner Street, Portsmouth, New Hampshire 03801, United States",43.074546,-70.7508,South End,03801
Rachel Allen,4,"Fleet Street, Portsmouth, New Hampshire 03801, United States",43.0761325714286,-70.7589378571429,Downtown,03801
Michael Green,1,"Granite Street, Portsmouth, New Hampshire 03801, United States",43.0855095,-70.7863505,Frank Jones Farm,03801
Sam Kim,0,"Granite Street, Portsmouth, New Hampshire 03801, United States",43.0855095,-70.7863505,Frank Jones Farm,03801
Bob Hill,2,"Farm Lane, Portsmouth, New Hampshire 03801, United States",43.078808,-70.785036,Frank Jones Farm,03801
Alice Smith,0,"Mckinley Road, Portsmouth, New Hampshire 03801, United States",43.040078,-70.768478,Elwyn Park,03801
George Lee,2,"1387 Maplewood Avenue, Portsmouth, New Hampshire 03801, United States",43.082695,-70.784363,Frank Jones Farm,03801
Charlie Brown,1,"Parker Street, Portsmouth, New Hampshire 03801, United States",43.0755905,-70.76288,Islington Creek,03801
Ethan Davis,2,"663 Marcy Street, Portsmouth, New Hampshire 03801, United States",43.070894,-70.74967,South End,03801
Charlie Smith,2,"217 Wibird Street, Portsmouth, New Hampshire 03801, United States",43.066207,-70.763619,Wibird Area,03801
Rachel Brown,1,"1059 Union Street, Portsmouth, New Hampshire 03801, United States",43.065531,-70.761922,Wibird Area,03801
Alice Turner,1,"27 Echo Avenue, Portsmouth, New Hampshire 03801, United States",43.08434,-70.78745,Frank Jones Farm,03801
Bob Hill,3,"Pinehurst Road, Portsmouth, New Hampshire 03801, United States",43.06348,-70.7591115,Broad Street,03801
Isaac White,5,"Brackett Lane, Portsmouth, New Hampshire 03801, United States",43.068337,-70.754319,Little Harbor,03801
Alice Baker,3,"382 Spinney Road, Portsmouth, New Hampshire 03801, United States",43.062844,-70.773119,Lafayette Park,03801
Charlie Garcia,3,"Salter Street, Portsmouth, New Hampshire 03801, United States",43.0725,-70.74937,South End,03801
Charlie Turner,3,"Miller Avenue, Portsmouth, New Hampshire 03801, United States",43.06878,-70.75991,Lincoln,03801
Lily Brown,0,"885 Spinney Road, Portsmouth, New Hampshire 03801, United States",43.062897,-70.773159,Lafayette Park,03801
Bob White,2,"19 Fernald Court, Portsmouth, New Hampshire 03801, United States",43.070224,-70.749126,Little Harbor,03801
Tina Clark,2,"Pinehurst Road, Portsmouth, New Hampshire 03801, United States",43.06348,-70.7591115,Broad Street,03801
Fiona Wilson,5,"Kane Street, Portsmouth, New Hampshire 03801, United States",43.0784705,-70.7714085,Christian Shore,03801
Ethan Johnson,5,"Pearl Street, Portsmouth, New Hampshire 03801, United States",43.07548,-70.76303,Islington Creek,03801
Alice Hill,2,"260 Willard Avenue, Portsmouth, New Hampshire 03801, United States",43.063227,-70.767633,Wibird Area,03801
Alice Garcia,5,"Wibird Street, Portsmouth, New Hampshire 03801, United States",43.0666105,-70.763359,Wibird Area,03801
Quincy Green,1,"335 Austin Street, Portsmouth, New Hampshire 03801, United States",43.07058,-70.766116,Goodwin Park,03801
Tina Wilson,1,"Adams Avenue, Portsmouth, New Hampshire 03801, United States",43.037709,-70.7667475,Elwyn Park,03801
Nancy Turner,2,"164 Brackett Lane, Portsmouth, New Hampshire 03801, United States",43.067873,-70.753796,Little Harbor,03801
Isaac Green,4,"655 Granite Street, Manchester, New Hampshire 03102, United States",42.982987,-71.479954,Piscataquog,03102
Paula Adams,0,"306 Pearl Street, Manchester, New Hampshire 03104, United States",42.997241,-71.449791,Straw,03104
Charlie Scott,4,"102 Peverly Hill Road, Portsmouth, New Hampshire 03801, United States",43.055585,-70.780665,Portsmouth Plains,03801
Michael Scott,0,"Greenleaf Avenue, Portsmouth, New Hampshire 03801, United States",43.05608,-70.7740335681818,Portsmouth Plains,03801
Michael Hill,5,"571 Thornton Street, Portsmouth, New Hampshire 03801, United States",43.073277,-70.776486,Christian Shore,03801
Sam White,0,"Mechanic Street, Portsmouth, New Hampshire 03801, United States",43.0747005,-70.750327,South End,03801
George Hill,4,"Farm Lane, Portsmouth, New Hampshire 03801, United States",43.078808,-70.785036,Frank Jones Farm,03801
Oliver Scott,3,"Deer Street, Portsmouth, New Hampshire 03801, United States",43.078175,-70.760861,North End,03801
Hannah Davis,3,"Market Street, Portsmouth, New Hampshire 03801, United States",43.0822131818182,-70.7626760909091,Nobles Island,03801
Hannah Wilson,5,"Lincoln Avenue, Portsmouth, New Hampshire 03801, United States",43.0679975,-70.7610185,Lincoln,03801
Charlie Scott,0,"159 Lincoln Avenue, Portsmouth, New Hampshire 03801, United States",43.069364,-70.75741,Richards Avenue Area,03801
Sam Miller,5,"Deer Street, Portsmouth, New Hampshire 03801, United States",43.078175,-70.760861,North End,03801
Rachel Smith,5,"Gardner Street, Portsmouth, New Hampshire 03801, United States",43.074546,-70.7508,South End,03801
Daisy White,0,"Langdon Street, Portsmouth, New Hampshire 03801, United States",43.074516,-70.7653624344262,Islington Creek,03801
Nancy Wilson,2,"Langdon Street, Portsmouth, New Hampshire 03801, United States",43.074516,-70.7653624344262,Islington Creek,03801
Charlie Hill,4,"Pearl Street, Portsmouth, New Hampshire 03801, United States",43.07548,-70.76303,Islington Creek,03801
Michael Baker,0,"Gardner Street, Portsmouth, New Hampshire 03801, United States",43.074546,-70.7508,South End,03801
Lily Scott,5,"Middle Street, Portsmouth, New Hampshire 03801, United States",43.07011,-70.76412,Goodwin Park,03801
Bob Johnson,4,"451 Thornton Street, Manchester, New Hampshire 03102, United States",42.991626,-71.483739,Notre Dame,03102
Kevin Harris,1,"Freedom Circle, Portsmouth, New Hampshire 03801, United States",43.03016,-70.79462,Maplehaven,03801
Sam Green,2,"Kane Street, Portsmouth, New Hampshire 03801, United States",43.0784705,-70.7714085,Christian Shore,03801
Sam Wilson,0,"141 Austin Street, Manchester, New Hampshire 03102, United States",42.982178,-71.492254,Mast Road,03102
Lily Harris,4,"Aldrich Road, Portsmouth, New Hampshire 03801, United States",43.067279,-70.770189,Lafayette Park,03801
Michael Lee,3,"Cabot Street, Portsmouth, New Hampshire 03801, United States",43.072342,-70.7652100192308,Goodwin Park,03801
George Turner,0,"70 Willard Avenue, Portsmouth, New Hampshire 03801, United States",43.064478,-70.764117,Wibird Area,03801
Quincy Harris,2,"424 Peverly Hill Road, Portsmouth, New Hampshire 03801, United States",43.053167,-70.779055,Portsmouth Plains,03801
Julia Kim,0,"Farm Lane, Portsmouth, New Hampshire 03801, United States",43.078808,-70.785036,Frank Jones Farm,03801
Hannah Scott,3,"259 Austin Street, Portsmouth, New Hampshire 03801, United States",43.071586,-70.764742,Goodwin Park,03801
Lily Reed,2,"Austin Street, Portsmouth, New Hampshire 03801, United States",43.07178,-70.76416,Goodwin Park,03801
Alice White,1,"South Street, Portsmouth, New Hampshire 03801, United States",43.0658175,-70.7597385,Lincoln,03801
Hannah Johnson,2,"Marcy Street, Portsmouth, New Hampshire 03801, United States",43.0737915,-70.751238,South End,03801
George Brown,5,"Lincoln Avenue, Portsmouth, New Hampshire 03801, United States",43.0679975,-70.7610185,Lincoln,03801
Rachel White,1,"489 Court Street, Portsmouth, New Hampshire 03801, United States",43.077008,-70.753322,Downtown,03801
Oliver Green,4,"Mechanic Street, Portsmouth, New Hampshire 03801, United States",43.0747005,-70.750327,South End,03801
Michael Miller,1,"Parker Street, Portsmouth, New Hampshire 03801, United States",43.0755905,-70.76288,Islington Creek,03801
Nancy Clark,1,"80 Brackett Lane, Portsmouth, New Hampshire 03801, United States",43.068243,-70.753956,Little Harbor,03801
Daisy Johnson,0,"Echo Avenue, Portsmouth, New Hampshire 03801, United States",43.0837015,-70.7889985,Frank Jones Farm,03801
Paula Reed,5,"220 Austin Street, Portsmouth, New Hampshire 03801, United States",43.071597,-70.764734,Goodwin Park,03801
Paula Brown,5,"Fernald Court, Portsmouth, New Hampshire 03801, United States",43.069881,-70.7488905,Little Harbor,03801
Oliver Reed,3,"196 Pleasant Street, Portsmouth, New Hampshire 03801, United States",43.07461,-70.755409,South End,03801
Bob Hill,5,"1302 Maplewood Avenue, Portsmouth, New Hampshire 03801, United States",43.082699,-70.784379,Frank Jones Farm,03801
Kevin Garcia,1,"Hancock Street, Portsmouth, New Hampshire 03801, United States",43.07497,-70.7528205,South End,03801
Paula Brown,2,"Whipple Street, Portsmouth, New Hampshire 03801, United States",43.0752045,-70.7757859,Christian Shore,03801
Lily Johnson,0,"838 Bridge Street, Manchester, New Hampshire 03104, United States",42.993688,-71.42433,Eaton Heights,03104
Alice Baker,1,"South Street, Portsmouth, New Hampshire 03801, United States",43.0658175,-70.7597385,Lincoln,03801
Rachel Turner,0,"Brackett Lane, Portsmouth, New Hampshire 03801, United States",43.068337,-70.754319,Little Harbor,03801
Ethan Smith,2,"Cass Street, Portsmouth, New Hampshire 03801, United States",43.070257,-70.7675665,Cass Street,03801
Julia Hill,0,"Parker Street, Portsmouth, New Hampshire 03801, United States",43.0755905,-70.76288,Islington Creek,03801
Hannah Davis,2,"Bartlett Street, Portsmouth, New Hampshire 03801, United States",43.073191,-70.774605,Christian Shore,03801
George Turner,5,"6 Langdon Street, Portsmouth, New Hampshire 03801, United States",43.073983,-70.764727,Islington Creek,03801
Alice Reed,0,"729 Leslie Drive, Portsmouth, New Hampshire 03801, United States",43.082402,-70.77122,Cutts Cove,03801
Paula Reed,4,"Fernald Court, Portsmouth, New Hampshire 03801, United States",43.069881,-70.7488905,Little Harbor,03801
Alice Green,0,"Willard Avenue, Portsmouth, New Hampshire 03801, United States",43.0642175,-70.7653895,Wibird Area,03801
Sam Lee,2,"1026 Leslie Drive, Portsmouth, New Hampshire 03801, United States",43.082409,-70.771649,Cutts Cove,03801
Rachel Scott,1,"281 Greenleaf Avenue, Portsmouth, New Hampshire 03801, United States",43.055007,-70.77555,Portsmouth Plains,03801
Julia Smith,3,"Salter Street, Portsmouth, New Hampshire 03801, United States",43.0725,-70.74937,South End,03801
Tina Turner,0,"Kane Street, Portsmouth, New Hampshire 03801, United States",43.0784705,-70.7714085,Christian Shore,03801
George Green,0,"628 Leslie Drive, Portsmouth, New Hampshire 03801, United States",43.0824,-70.771061,Cutts Cove,03801
Quincy Johnson,1,"Farm Lane, Portsmouth, New Hampshire 03801, United States",43.078808,-70.785036,Frank Jones Farm,03801
Tina Hill,4,"Cabot Street, Portsmouth, New Hampshire 03801, United States",43.072342,-70.7652100192308,Goodwin Park,03801
Fiona Adams,4,"Deer Street, Portsmouth, New Hampshire 03801, United States",43.078175,-70.760861,North End,03801
Daisy Davis,3,"Whipple Street, Portsmouth, New Hampshire 03801, United States",43.0752045,-70.7757859,Christian Shore,03801
Fiona Wilson,5,"Parker Street, Portsmouth, New Hampshire 03801, United States",43.0755905,-70.76288,Islington Creek,03801
Nancy Baker,1,"Freedom Circle, Portsmouth, New Hampshire 03801, United States",43.03016,-70.79462,Maplehaven,03801
Daisy Baker,1,"1321 Union Street, Manchester, New Hampshire 03104, United States",43.020668,-71.462289,North End,03104
Fiona Harris,4,"747 Lincoln Avenue, Portsmouth, New Hampshire 03801, United States",43.066698,-70.766734,Wibird Area,03801
Oliver White,3,"Cass Street, Portsmouth, New Hampshire, United States",43.0701,-70.76919,Cass Street,03801
Isaac Scott,3,"115 Gates Street, Portsmouth, New Hampshire 03801, United States",43.074529,-70.753149,South End,03801
Bob Scott,3,"394 Cass Street, Portsmouth, New Hampshire 03801, United States",43.068803,-70.765881,Cass Street,03801
Fiona Baker,2,"Richards Avenue, Portsmouth, New Hampshire 03801, United States",43.0698125,-70.7593955,Richards Avenue Area,03801
Quincy Reed,1,"Pinehurst Road, Portsmouth, New Hampshire 03801, United States",43.06348,-70.7591115,Broad Street,03801
George Wilson,4,"Kane Street, Portsmouth, New Hampshire 03801, United States",43.0784705,-70.7714085,Christian Shore,03801
Rachel Harris,1,"200 Cabot Street, Portsmouth, New Hampshire 03801, United States",43.072467,-70.765725,Goodwin Park,03801
George Garcia,0,"Fernald Court, Portsmouth, New Hampshire 03801, United States",43.069881,-70.7488905,Little Harbor,03801
Kevin Allen,0,"476 Rockland Street, Portsmouth, New Hampshire 03801, United States",43.069261,-70.761481,Lincoln,03801
Ethan Reed,2,"Gates Street, Portsmouth, New Hampshire 03801, United States",43.07483,-70.751949,South End,03801
Hannah Scott,2,"South Street, Portsmouth, New Hampshire 03801, United States",43.0658175,-70.7597385,Lincoln,03801
Kevin Lee,5,"Austin Street, Portsmouth, New Hampshire 03801, United States",43.07178,-70.76416,Goodwin Park,03801
Lily White,0,"656 Greenleaf Avenue, Portsmouth, New Hampshire 03801, United States",43.053593,-70.778336,Portsmouth Plains,03801
Sam Garcia,3,"Farm Lane, Portsmouth, New Hampshire 03801, United States",43.078808,-70.785036,Frank Jones Farm,03801
Kevin Wilson,3,"138 Madison Street, Portsmouth, New Hampshire 03801, United States",43.070501,-70.766219,Goodwin Park,03801
George Davis,4,"149 Willard Avenue, Portsmouth, New Hampshire 03801, United States",43.06393,-70.765464,Wibird Area,03801
Sam Clark,0,"Market Street, Portsmouth, New Hampshire 03801, United States",43.0822131818182,-70.7626760909091,Nobles Island,03801
Charlie Adams,3,"Spinney Road, Portsmouth, New Hampshire 03801, United States",43.0645575,-70.77424,Lafayette Park,03801
Lily Allen,5,"Fernald Court, Portsmouth, New Hampshire 03801, United States",43.069881,-70.7488905,Little Harbor,03801
Lily Smith,1,"Langdon Street, Portsmouth, New Hampshire 03801, United States",43.074516,-70.7653624344262,Islington Creek,03801
Hannah Garcia,2,"Adams Avenue, Portsmouth, New Hampshire 03801, United States",43.037709,-70.7667475,Elwyn Park,03801
Bob Johnson,3,"Willard Avenue, Portsmouth, New Hampshire 03801, United States",43.0642175,-70.7653895,Wibird Area,03801
Lily Hill,3,"Mechanic Street, Portsmouth, New Hampshire 03801, United States",43.0747005,-70.750327,South End,03801
Fiona Reed,5,"Mechanic Street, Portsmouth, New Hampshire 03801, United States",43.0747005,-70.750327,South End,03801
Ethan Miller,0,"Chestnut Street, Portsmouth, New Hampshire 03801, United States",43.0757385,-70.759677,Downtown,03801
Hannah Lee,0,"Granite Street, Portsmouth, New Hampshire 03801, United States",43.0855095,-70.7863505,Frank Jones Farm,03801
Tina Clark,3,"Deer Street, Portsmouth, New Hampshire 03801, United States",43.078175,-70.760861,North End,03801
Paula Kim,5,"1592 Bridge Street, Manchester, New Hampshire 03104, United States",42.99426,-71.404432,Youngsville,03104
Julia Brown,5,"1374 South Street, Portsmouth, New Hampshire 03801, United States",43.062578,-70.770106,Lafayette Park,03801
Michael Scott,5,"Mechanic Street, Portsmouth, New Hampshire 03801, United States",43.0747005,-70.750327,South End,03801
Rachel Baker,2,"Freedom Circle, Portsmouth, New Hampshire 03801, United States",43.03016,-70.79462,Maplehaven,03801
Oliver Miller,2,"Market Street, Portsmouth, New Hampshire 03801, United States",43.0822131818182,-70.7626760909091,Nobles Island,03801
Julia Hill,4,"Adams Avenue, Portsmouth, New Hampshire 03801, United States",43.037709,-70.7667475,Elwyn Park,03801
Tina Wilson,5,"1012 Spinney Road, Portsmouth, New Hampshire 03801, United States",43.062998,-70.773238,Lafayette Park,03801
Oliver Harris,4,"49 Rockland Street, Portsmouth, New Hampshire 03801, United States",43.070518,-70.757982,Richards Avenue Area,03801
Fiona Green,2,"Willard Avenue, Portsmouth, New Hampshire 03801, United States",43.0642175,-70.7653895,Wibird Area,03801
Sam Smith,2,"Whipple Street, Portsmouth, New Hampshire 03801, United States",43.0752045,-70.7757859,Christian Shore,03801
Tina Garcia,3,"Langdon Street, Portsmouth, New Hampshire 03801, United States",43.074516,-70.7653624344262,Islington Creek,03801
George Clark,5,"Brackett Lane, Portsmouth, New Hampshire 03801, United States",43.068337,-70.754319,Little Harbor,03801
Hannah Scott,1,"Pinehurst Road, Portsmouth, New Hampshire 03801, United States",43.06348,-70.7591115,Broad Street,03801
Daisy Adams,5,"Austin Street, Portsmouth, New Hampshire 03801, United States",43.07178,-70.76416,Goodwin Park,03801
Isaac Johnson,3,"1022 Pleasant Street, Portsmouth, New Hampshire 03801, United States",43.073066,-70.750793,South End,03801
Tina Garcia,0,"287 High Street, Portsmouth, New Hampshire 03801, United States",43.078991,-70.759842,Downtown,03801
Isaac Scott,3,"Whipple Street, Portsmouth, New Hampshire 03801, United States",43.0752045,-70.7757859,Christian Shore,03801
Lily Turner,5,"Fernald Court, Portsmouth, New Hampshire 03801, United States",43.069881,-70.7488905,Little Harbor,03801
George Garcia,2,"Willard Avenue, Portsmouth, New Hampshire 03801, United States",43.0642175,-70.7653895,Wibird Area,03801
George Harris,2,"Fleet Street, Portsmouth, New Hampshire 03801, United States",43.0761325714286,-70.7589378571429,Downtown,03801
Nancy Green,2,"Pearl Street, Portsmouth, New Hampshire 03801, United States",43.07548,-70.76303,Islington Creek,03801
Sam Scott,4,"Whipple Street, Portsmouth, New Hampshire 03801, United States",43.0752045,-70.7757859,Christian Shore,03801
Lily Wilson,0,"Brackett Lane, Portsmouth, New Hampshire 03801, United States",43.068337,-70.754319,Little Harbor,03801
Michael Davis,2,"512 Pleasant Street, Portsmouth, New Hampshire 03801, United States",43.073163,-70.750974,South End,03801
George Harris,5,"Farm Lane, Portsmouth, New Hampshire 03801, United States",43.078808,-70.785036,Frank Jones Farm,03801
Isaac Turner,1,"Brewster Street, Portsmouth, New Hampshire 03801, United States",43.07469,-70.7647515,Islington Creek,03801
Michael Brown,2,"Langdon Street, Portsmouth, New Hampshire 03801, United States",43.074516,-70.7653624344262,Islington Creek,03801
Julia Smith,5,"Parker Street, Portsmouth, New Hampshire 03801, United States",43.0755905,-70.76288,Islington Creek,03801
Hannah Reed,3,"Leslie Drive, Portsmouth, New Hampshire 03801, United States",43.0825105,-70.7696875,Cutts Cove,03801
Sam Wilson,2,"931 Richards Avenue, Portsmouth, New Hampshire 03801, United States",43.066834,-70.757067,Richards Avenue Area,03801
Oliver Miller,5,"330 Wibird Street, Portsmouth, New Hampshire 03801, United States",43.064798,-70.762946,Wibird Area,03801
Kevin Brown,4,"Willard Avenue, Portsmouth, New Hampshire 03801, United States",43.0642175,-70.7653895,Wibird Area,03801
Charlie Green,5,"Mckinley Road, Portsmouth, New Hampshire 03801, United States",43.040078,-70.768478,Elwyn Park,03801
Fiona Turner,4,"1476 South Street, Portsmouth, New Hampshire 03801, United States",43.062611,-70.770623,Lafayette Park,03801
Charlie Reed,5,"Parker Street, Portsmouth, New Hampshire 03801, United States",43.0755905,-70.76288,Islington Creek,03801
Tina Allen,2,"Daniel Street, Portsmouth, New Hampshire 03801, United States",43.077515,-70.7554332816901,Downtown,03801
Charlie Lee,0,"922 Lincoln Avenue, Portsmouth, New Hampshire 03801, United States",43.06667,-70.766971,Wibird Area,03801
Ethan Lee,5,"344 Spinney Road, Portsmouth, New Hampshire 03801, United States",43.062861,-70.773132,Lafayette Park,03801
Michael Wilson,0,"Willard Avenue, Portsmouth, New Hampshire 03801, United States",43.0642175,-70.7653895,Wibird Area,03801
Isaac White,5,"Austin Street, Portsmouth, New Hampshire 03801, United States",43.07178,-70.76416,Goodwin Park,03801
Kevin Wilson,5,"Madison Street, Portsmouth, New Hampshire 03801, United States",43.07045,-70.765807,Goodwin Park,03801
Daisy White,4,"Kane Street, Portsmouth, New Hampshire 03801, United States",43.0784705,-70.7714085,Christian Shore,03801
Isaac White,4,"Mechanic Street, Portsmouth, New Hampshire 03801, United States",43.0747005,-70.750327,South End,03801
Bob Brown,3,"Richards Avenue, Portsmouth, New Hampshire 03801, United States",43.0698125,-70.7593955,Richards Avenue Area,03801
Michael Allen,0,"Mechanic Street, Portsmouth, New Hampshire 03801, United States",43.0747005,-70.750327,South End,03801
Oliver Harris,1,"Rockland Street, Portsmouth, New Hampshire 03801, United States",43.069858,-70.759441,Richards Avenue Area,03801
Charlie Kim,2,"Rockland Street, Portsmouth, New Hampshire 03801, United States",43.069858,-70.759441,Richards Avenue Area,03801
Isaac Kim,0,"Spinney Road, Portsmouth, New Hampshire 03801, United States",43.0645575,-70.77424,Lafayette Park,03801
Alice Allen,1,"Chestnut Street, Portsmouth, New Hampshire 03801, United States",43.0757385,-70.759677,Downtown,03801
Fiona Harris,2,"Kane Street, Portsmouth, New Hampshire 03801, United States",43.0784705,-70.7714085,Christian Shore,03801
Michael Turner,2,"Mckinley Road, Portsmouth, New Hampshire 03801, United States",43.040078,-70.768478,Elwyn Park,03801
Michael Kim,3,"43 Sagamore Avenue, Portsmouth, New Hampshire 03801, United States",43.065979,-70.757876,Broad Street,03801
Sam Reed,2,"927 Richards Avenue, Portsmouth, New Hampshire 03801, United States",43.066839,-70.75707,Richards Avenue Area,03801
Julia Kim,1,"Salter Street, Portsmouth, New Hampshire 03801, United States",43.0725,-70.74937,South End,03801
Michael Allen,4,"526 Greenleaf Avenue, Portsmouth, New Hampshire 03801, United States",43.053658,-70.778215,Portsmouth Plains,03801
Sam Smith,5,"Fernald Court, Portsmouth, New Hampshire 03801, United States",43.069881,-70.7488905,Little Harbor,03801
Paula Green,5,"Granite Street, Portsmouth, New Hampshire 03801, United States",43.0855095,-70.7863505,Frank Jones Farm,03801
Charlie Allen,0,"88 Pinehurst Road, Portsmouth, New Hampshire 03801, United States",43.063788,-70.759538,Broad Street,03801
Ethan Lee,4,"121 Mechanic Street, Portsmouth, New Hampshire 03801, United States",43.074832,-70.749941,South End,03801
Nancy Garcia,2,"801 Marcy Street, Portsmouth, New Hampshire 03801, United States",43.070834,-70.749646,South End,03801
Paula Miller,1,"746 Thornton Street, Portsmouth, New Hampshire 03801, United States",43.07334,-70.776452,Christian Shore,03801
Oliver Johnson,1,"385 Cass Street, Portsmouth, New Hampshire 03801, United States",43.068803,-70.765881,Cass Street,03801
Sam Hill,0,"Freedom Circle, Portsmouth, New Hampshire 03801, United States",43.03016,-70.79462,Maplehaven,03801
Lily White,2,"534 State Street, Portsmouth, New Hampshire 03801, United States",43.074148,-70.761507,Goodwin Park,03801
Alice White,1,"Echo Avenue, Portsmouth, New Hampshire 03801, United States",43.0837015,-70.7889985,Frank Jones Farm,03801
Julia Reed,3,"631 Woodbury Avenue, Portsmouth, New Hampshire 03801, United States",43.076842,-70.780449,Frank Jones Farm,03801
Fiona Baker,4,"Fleet Street, Portsmouth, New Hampshire 03801, United States",43.0761325714286,-70.7589378571429,Downtown,03801
Fiona White,4,"Whipple Street, Portsmouth, New Hampshire 03801, United States",43.0752045,-70.7757859,Christian Shore,03801
Kevin Hill,0,"Parker Street, Portsmouth, New Hampshire 03801, United States",43.0755905,-70.76288,Islington Creek,03801
Daisy Miller,1,"1168 Maplewood Avenue, Portsmouth, New Hampshire 03801, United States",43.082378,-70.782974,Frank Jones Farm,03801
Nancy Lee,4,"2 Market Sq, Portsmouth, New Hampshire 03801, United States",43.077023,-70.757029,Downtown,03801
Sam Clark,5,"77 Austin Street, Portsmouth, New Hampshire 03801, United States",43.072568,-70.762928,Goodwin Park,03801
Rachel Hill,1,"Salter Street, Portsmouth, New Hampshire 03801, United States",43.0725,-70.74937,South End,03801
Paula Garcia,1,"Lincoln Avenue, Portsmouth, New Hampshire 03801, United States",43.0679975,-70.7610185,Lincoln,03801
Paula Davis,1,"Marcy Street, Portsmouth, New Hampshire 03801, United States",43.0737915,-70.751238,South End,03801
Ethan White,4,"Salter Street, Portsmouth, New Hampshire 03801, United States",43.0725,-70.74937,South End,03801
Michael Kim,0,"684 Middle Street, Portsmouth, New Hampshire 03801, United States",43.067836,-70.766681,Lafayette Park,03801
Lily Reed,2,"Willard Avenue, Portsmouth, New Hampshire 03801, United States",43.0642175,-70.7653895,Wibird Area,03801
Daisy Wilson,2,"998 Marcy Street, Portsmouth, New Hampshire 03801, United States",43.070754,-70.749598,South End,03801
Oliver Turner,0,"Willard Avenue, Portsmouth, New Hampshire 03801, United States",43.0642175,-70.7653895,Wibird Area,03801
Sam White,1,"944 Greenleaf Avenue, Portsmouth, New Hampshire 03801, United States",43.053449,-70.778603,Portsmouth Plains,03801
Julia Lee,5,"Hancock Street, Portsmouth, New Hampshire 03801, United States",43.07497,-70.7528205,South End,03801
Nancy Turner,5,"605 Marcy Street, Portsmouth, New Hampshire 03801, United States",43.07092,-70.749678,South End,03801
Lily Hill,4,"683 Spinney Road, Portsmouth, New Hampshire 03801, United States",43.062957,-70.773206,Lafayette Park,03801
Oliver Turner,4,"220 Wibird St, Portsmouth, New Hampshire 03801, United States",43.06653,-70.76384,Wibird Area,03801
Kevin Allen,3,"257 Leslie Drive, Portsmouth, New Hampshire 03801, United States",43.082863,-70.769575,Cutts Cove,03801
Quincy Allen,3,"Langdon Street, Portsmouth, New Hampshire 03801, United States",43.074516,-70.7653624344262,Islington Creek,03801
Quincy Clark,4,"Fernald Court, Portsmouth, New Hampshire 03801, United States",43.069881,-70.7488905,Little Harbor,03801
Isaac Allen,5,"Cabot Street, Portsmouth, New Hampshire 03801, United States",43.072342,-70.7652100192308,Goodwin Park,03801
Sam Allen,3,"163 Austin Street, Portsmouth, New Hampshire 03801, United States",43.071983,-70.764169,Goodwin Park,03801
Julia Johnson,3,"778 Granite Street, Manchester, New Hampshire 03102, United States",42.982938,-71.479987,Piscataquog,03102
Rachel Lee,4,"Fleet Street, Portsmouth, New Hampshire 03801, United States",43.0761325714286,-70.7589378571429,Downtown,03801
Fiona Johnson,2,"Cass Street, Portsmouth, New Hampshire, United States",43.0701,-70.76919,Cass Street,03801
Isaac Johnson,0,"South Mill Street, Portsmouth, New Hampshire 03801, United States",43.07322,-70.75026,South End,03801
Lily Baker,1,"46 Rockland Street, Portsmouth, New Hampshire 03801, United States",43.070518,-70.757982,Richards Avenue Area,03801
Ethan Smith,3,"Marcy Street, Portsmouth, New Hampshire 03801, United States",43.0737915,-70.751238,South End,03801
Charlie Miller,0,"Summit Dr, Portsmouth, New Hampshire 03811, United States",43.074839,-70.764804,Islington Creek,03811
Alice Smith,1,"Pinehurst Road, Portsmouth, New Hampshire 03801, United States",43.06348,-70.7591115,Broad Street,03801
Ethan Allen,2,"South Street, Portsmouth, New Hampshire 03801, United States",43.0658175,-70.7597385,Lincoln,03801
Michael Clark,3,"Pinehurst Road, Portsmouth, New Hampshire 03801, United States",43.06348,-70.7591115,Broad Street,03801
Michael Clark,1,"906 Richards Avenue, Portsmouth, New Hampshire 03801, United States",43.066861,-70.757085,Richards Avenue Area,03801
Bob Hill,0,"580 Ledgewood Road, Manchester, New Hampshire 03104, United States",43.01924,-71.455526,North End,03104
Michael Johnson,3,"737 Lincoln Avenue, Portsmouth, New Hampshire 03801, United States",43.0667,-70.766719,Wibird Area,03801
Lily Baker,4,"Austin Street, Portsmouth, New Hampshire 03801, United States",43.07178,-70.76416,Goodwin Park,03801
Lily Adams,1,"Kearsarge Way, Portsmouth, New Hampshire 03801, United States",43.08814,-70.7740905,Atlantic Heights,03801
Julia Turner,5,"630 Middle Street, Portsmouth, New Hampshire 03801, United States",43.068382,-70.766161,Wibird Area,03801
Bob Davis,3,"130 Lincoln Avenue, Portsmouth, New Hampshire 03801, United States",43.06955,-70.756772,Richards Avenue Area,03801
Bob Baker,1,"Freedom Circle, Portsmouth, New Hampshire 03801, United States",43.03016,-70.79462,Maplehaven,03801
Rachel Kim,2,"1077 Ledgewood Road, Manchester, New Hampshire 03104, United States",43.018992,-71.455474,North End,03104
Sam Garcia,3,"154 Gates Street, Portsmouth, New Hampshire 03801, United States",43.074722,-70.752056,South End,03801
Fiona Davis,5,"Greenleaf Avenue, Portsmouth, New Hampshire 03801, United States",43.05608,-70.7740335681818,Portsmouth Plains,03801
